[
  {
    "name": "Goroka Airport",
    "city": "Goroka",
    "country": "Papua New Guinea",
    "code_iata": "GKA",
    "code_icao": "AYGA",
    "latitude": -6.081689834590001,
    "longitude": 145.391998291,
    "timezone": "Pacific/Port_Moresby"
  }, {
    "name": "Madang Airport",
    "city": "Madang",
    "country": "Papua New Guinea",
    "code_iata": "MAG",
    "code_icao": "AYMD",
    "latitude": -5.20707988739,
    "longitude": 145.789001465,
    "timezone": "Pacific/Port_Moresby"
  }, {
    "name": "Mount Hagen Kagamuga Airport",
    "city": "Mount Hagen",
    "country": "Papua New Guinea",
    "code_iata": "HGU",
    "code_icao": "AYMH",
    "latitude": -5.826789855957031,
    "longitude": 144.29600524902344,
    "timezone": "Pacific/Port_Moresby"
  }, {
    "name": "Nadzab Airport",
    "city": "Nadzab",
    "country": "Papua New Guinea",
    "code_iata": "LAE",
    "code_icao": "AYNZ",
    "latitude": -6.569803,
    "longitude": 146.725977,
    "timezone": "Pacific/Port_Moresby"
  }, {
    "name": "Port Moresby Jacksons International Airport",
    "city": "Port Moresby",
    "country": "Papua New Guinea",
    "code_iata": "POM",
    "code_icao": "AYPY",
    "latitude": -9.443380355834961,
    "longitude": 147.22000122070312,
    "timezone": "Pacific/Port_Moresby"
  }, {
    "name": "Wewak International Airport",
    "city": "Wewak",
    "country": "Papua New Guinea",
    "code_iata": "WWK",
    "code_icao": "AYWK",
    "latitude": -3.58383011818,
    "longitude": 143.669006348,
    "timezone": "Pacific/Port_Moresby"
  }, {
    "name": "Narsarsuaq Airport",
    "city": "Narssarssuaq",
    "country": "Greenland",
    "code_iata": "UAK",
    "code_icao": "BGBW",
    "latitude": 61.1604995728,
    "longitude": -45.4259986877,
    "timezone": "America/Godthab"
  }, {
    "name": "Godthaab / Nuuk Airport",
    "city": "Godthaab",
    "country": "Greenland",
    "code_iata": "GOH",
    "code_icao": "BGGH",
    "latitude": 64.19090271,
    "longitude": -51.6781005859,
    "timezone": "America/Godthab"
  }, {
    "name": "Kangerlussuaq Airport",
    "city": "Sondrestrom",
    "country": "Greenland",
    "code_iata": "SFJ",
    "code_icao": "BGSF",
    "latitude": 67.0122218992,
    "longitude": -50.7116031647,
    "timezone": "America/Godthab"
  }, {
    "name": "Thule Air Base",
    "city": "Thule",
    "country": "Greenland",
    "code_iata": "THU",
    "code_icao": "BGTL",
    "latitude": 76.5311965942,
    "longitude": -68.7032012939,
    "timezone": "America/Thule"
  }, {
    "name": "Akureyri Airport",
    "city": "Akureyri",
    "country": "Iceland",
    "code_iata": "AEY",
    "code_icao": "BIAR",
    "latitude": 65.66000366210938,
    "longitude": -18.07270050048828,
    "timezone": "Atlantic/Reykjavik"
  }, {
    "name": "Egilsstaðir Airport",
    "city": "Egilsstadir",
    "country": "Iceland",
    "code_iata": "EGS",
    "code_icao": "BIEG",
    "latitude": 65.2833023071289,
    "longitude": -14.401399612426758,
    "timezone": "Atlantic/Reykjavik"
  }, {
    "name": "Hornafjörður Airport",
    "city": "Hofn",
    "country": "Iceland",
    "code_iata": "HFN",
    "code_icao": "BIHN",
    "latitude": 64.295601,
    "longitude": -15.2272,
    "timezone": "Atlantic/Reykjavik"
  }, {
    "name": "Húsavík Airport",
    "city": "Husavik",
    "country": "Iceland",
    "code_iata": "HZK",
    "code_icao": "BIHU",
    "latitude": 65.952301,
    "longitude": -17.426001,
    "timezone": "Atlantic/Reykjavik"
  }, {
    "name": "Ísafjörður Airport",
    "city": "Isafjordur",
    "country": "Iceland",
    "code_iata": "IFJ",
    "code_icao": "BIIS",
    "latitude": 66.05809783935547,
    "longitude": -23.135299682617188,
    "timezone": "Atlantic/Reykjavik"
  }, {
    "name": "Keflavik International Airport",
    "city": "Keflavik",
    "country": "Iceland",
    "code_iata": "KEF",
    "code_icao": "BIKF",
    "latitude": 63.985000610352,
    "longitude": -22.605600357056,
    "timezone": "Atlantic/Reykjavik"
  }, {
    "name": "Patreksfjörður Airport",
    "city": "Patreksfjordur",
    "country": "Iceland",
    "code_iata": "PFJ",
    "code_icao": "BIPA",
    "latitude": 65.555801,
    "longitude": -23.965,
    "timezone": "Atlantic/Reykjavik"
  }, {
    "name": "Reykjavik Airport",
    "city": "Reykjavik",
    "country": "Iceland",
    "code_iata": "RKV",
    "code_icao": "BIRK",
    "latitude": 64.1299972534,
    "longitude": -21.9405994415,
    "timezone": "Atlantic/Reykjavik"
  }, {
    "name": "Siglufjörður Airport",
    "city": "Siglufjordur",
    "country": "Iceland",
    "code_iata": "SIJ",
    "code_icao": "BISI",
    "latitude": 66.133301,
    "longitude": -18.9167,
    "timezone": "Atlantic/Reykjavik"
  }, {
    "name": "Vestmannaeyjar Airport",
    "city": "Vestmannaeyjar",
    "country": "Iceland",
    "code_iata": "VEY",
    "code_icao": "BIVM",
    "latitude": 63.42430114746094,
    "longitude": -20.278900146484375,
    "timezone": "Atlantic/Reykjavik"
  }, {
    "name": "Sault Ste Marie Airport",
    "city": "Sault Sainte Marie",
    "country": "Canada",
    "code_iata": "YAM",
    "code_icao": "CYAM",
    "latitude": 46.48500061035156,
    "longitude": -84.5093994140625,
    "timezone": "America/Toronto"
  }, {
    "name": "Winnipeg / St. Andrews Airport",
    "city": "Winnipeg",
    "country": "Canada",
    "code_iata": "YAV",
    "code_icao": "CYAV",
    "latitude": 50.0564002991,
    "longitude": -97.03250122070001,
    "timezone": "America/Winnipeg"
  }, {
    "name": "Halifax / CFB Shearwater Heliport",
    "city": "Halifax",
    "country": "Canada",
    "code_iata": "YAW",
    "code_icao": "CYAW",
    "latitude": 44.6397018433,
    "longitude": -63.499401092499994,
    "timezone": "America/Halifax"
  }, {
    "name": "St. Anthony Airport",
    "city": "St. Anthony",
    "country": "Canada",
    "code_iata": "YAY",
    "code_icao": "CYAY",
    "latitude": 51.3918991089,
    "longitude": -56.083099365200006,
    "timezone": "America/St_Johns"
  }, {
    "name": "Tofino / Long Beach Airport",
    "city": "Tofino",
    "country": "Canada",
    "code_iata": "YAZ",
    "code_icao": "CYAZ",
    "latitude": 49.079833,
    "longitude": -125.775583,
    "timezone": "America/Vancouver"
  }, {
    "name": "Kugaaruk Airport",
    "city": "Pelly Bay",
    "country": "Canada",
    "code_iata": "YBB",
    "code_icao": "CYBB",
    "latitude": 68.534401,
    "longitude": -89.808098,
    "timezone": "America/Edmonton"
  }, {
    "name": "Baie Comeau Airport",
    "city": "Baie Comeau",
    "country": "Canada",
    "code_iata": "YBC",
    "code_icao": "CYBC",
    "latitude": 49.13249969482422,
    "longitude": -68.20439910888672,
    "timezone": "America/Toronto"
  }, {
    "name": "CFB Bagotville",
    "city": "Bagotville",
    "country": "Canada",
    "code_iata": "YBG",
    "code_icao": "CYBG",
    "latitude": 48.33060073852539,
    "longitude": -70.99639892578125,
    "timezone": "America/Toronto"
  }, {
    "name": "Baker Lake Airport",
    "city": "Baker Lake",
    "country": "Canada",
    "code_iata": "YBK",
    "code_icao": "CYBK",
    "latitude": 64.29889678960001,
    "longitude": -96.077796936,
    "timezone": "America/Winnipeg"
  }, {
    "name": "Campbell River Airport",
    "city": "Campbell River",
    "country": "Canada",
    "code_iata": "YBL",
    "code_icao": "CYBL",
    "latitude": 49.950801849365234,
    "longitude": -125.27100372314453,
    "timezone": "America/Vancouver"
  }, {
    "name": "Brandon Municipal Airport",
    "city": "Brandon",
    "country": "Canada",
    "code_iata": "YBR",
    "code_icao": "CYBR",
    "latitude": 49.91,
    "longitude": -99.951897,
    "timezone": "America/Winnipeg"
  }, {
    "name": "Cambridge Bay Airport",
    "city": "Cambridge Bay",
    "country": "Canada",
    "code_iata": "YCB",
    "code_icao": "CYCB",
    "latitude": 69.1081008911,
    "longitude": -105.138000488,
    "timezone": "America/Edmonton"
  }, {
    "name": "Nanaimo Airport",
    "city": "Nanaimo",
    "country": "Canada",
    "code_iata": "YCD",
    "code_icao": "CYCD",
    "latitude": 49.054970224899996,
    "longitude": -123.869862556,
    "timezone": "America/Vancouver"
  }, {
    "name": "Castlegar/West Kootenay Regional Airport",
    "city": "Castlegar",
    "country": "Canada",
    "code_iata": "YCG",
    "code_icao": "CYCG",
    "latitude": 49.2963981628,
    "longitude": -117.632003784,
    "timezone": "America/Vancouver"
  }, {
    "name": "Miramichi Airport",
    "city": "Chatham",
    "country": "Canada",
    "code_iata": "YCH",
    "code_icao": "CYCH",
    "latitude": 47.007801,
    "longitude": -65.449203,
    "timezone": "America/Halifax"
  }, {
    "name": "Charlo Airport",
    "city": "Charlo",
    "country": "Canada",
    "code_iata": "YCL",
    "code_icao": "CYCL",
    "latitude": 47.990799,
    "longitude": -66.330299,
    "timezone": "America/Halifax"
  }, {
    "name": "Kugluktuk Airport",
    "city": "Coppermine",
    "country": "Canada",
    "code_iata": "YCO",
    "code_icao": "CYCO",
    "latitude": 67.81670379639999,
    "longitude": -115.143997192,
    "timezone": "America/Edmonton"
  }, {
    "name": "Coronation Airport",
    "city": "Coronation",
    "country": "Canada",
    "code_iata": "YCT",
    "code_icao": "CYCT",
    "latitude": 52.0750007629,
    "longitude": -111.444999695,
    "timezone": "America/Edmonton"
  }, {
    "name": "Chilliwack Airport",
    "city": "Chilliwack",
    "country": "Canada",
    "code_iata": "YCW",
    "code_icao": "CYCW",
    "latitude": 49.1528015137,
    "longitude": -121.939002991,
    "timezone": "America/Vancouver"
  }, {
    "name": "Clyde River Airport",
    "city": "Clyde River",
    "country": "Canada",
    "code_iata": "YCY",
    "code_icao": "CYCY",
    "latitude": 70.4860992432,
    "longitude": -68.5167007446,
    "timezone": "America/Toronto"
  }, {
    "name": "Coral Harbour Airport",
    "city": "Coral Harbour",
    "country": "Canada",
    "code_iata": "YZS",
    "code_icao": "CYZS",
    "latitude": 64.1932983398,
    "longitude": -83.3593978882,
    "timezone": "America/Coral_Harbour"
  }, {
    "name": "Dawson City Airport",
    "city": "Dawson",
    "country": "Canada",
    "code_iata": "YDA",
    "code_icao": "CYDA",
    "latitude": 64.04309844970703,
    "longitude": -139.1280059814453,
    "timezone": "America/Vancouver"
  }, {
    "name": "Burwash Airport",
    "city": "Burwash",
    "country": "Canada",
    "code_iata": "YDB",
    "code_icao": "CYDB",
    "latitude": 61.37110137939453,
    "longitude": -139.04100036621094,
    "timezone": "America/Vancouver"
  }, {
    "name": "Princeton Airport",
    "city": "Princeton",
    "country": "Canada",
    "code_iata": "YDC",
    "code_icao": "CYDC",
    "latitude": 49.4681015015,
    "longitude": -120.511001587,
    "timezone": "America/Vancouver"
  }, {
    "name": "Deer Lake Airport",
    "city": "Deer Lake",
    "country": "Canada",
    "code_iata": "YDF",
    "code_icao": "CYDF",
    "latitude": 49.21080017089844,
    "longitude": -57.39139938354492,
    "timezone": "America/St_Johns"
  }, {
    "name": "Dease Lake Airport",
    "city": "Dease Lake",
    "country": "Canada",
    "code_iata": "YDL",
    "code_icao": "CYDL",
    "latitude": 58.4221992493,
    "longitude": -130.031997681,
    "timezone": "America/Vancouver"
  }, {
    "name": "Dauphin Barker Airport",
    "city": "Dauphin",
    "country": "Canada",
    "code_iata": "YDN",
    "code_icao": "CYDN",
    "latitude": 51.100799560546875,
    "longitude": -100.052001953125,
    "timezone": "America/Winnipeg"
  }, {
    "name": "Dawson Creek Airport",
    "city": "Dawson Creek",
    "country": "Canada",
    "code_iata": "YDQ",
    "code_icao": "CYDQ",
    "latitude": 55.7422981262207,
    "longitude": -120.18299865722656,
    "timezone": "America/Dawson_Creek"
  }, {
    "name": "Edmonton International Airport",
    "city": "Edmonton",
    "country": "Canada",
    "code_iata": "YEG",
    "code_icao": "CYEG",
    "latitude": 53.309700012200004,
    "longitude": -113.580001831,
    "timezone": "America/Edmonton"
  }, {
    "name": "Arviat Airport",
    "city": "Eskimo Point",
    "country": "Canada",
    "code_iata": "YEK",
    "code_icao": "CYEK",
    "latitude": 61.0942001343,
    "longitude": -94.07080078119999,
    "timezone": "America/Winnipeg"
  }, {
    "name": "Estevan Airport",
    "city": "Estevan",
    "country": "Canada",
    "code_iata": "YEN",
    "code_icao": "CYEN",
    "latitude": 49.2103004456,
    "longitude": -102.966003418,
    "timezone": "America/Regina"
  }, {
    "name": "Edson Airport",
    "city": "Edson",
    "country": "Canada",
    "code_iata": "YET",
    "code_icao": "CYET",
    "latitude": 53.578899383499994,
    "longitude": -116.464996338,
    "timezone": "America/Edmonton"
  }, {
    "name": "Eureka Airport",
    "city": "Eureka",
    "country": "Canada",
    "code_iata": "YEU",
    "code_icao": "CYEU",
    "latitude": 79.9946975708,
    "longitude": -85.814201355,
    "timezone": "America/Winnipeg"
  }, {
    "name": "Inuvik Mike Zubko Airport",
    "city": "Inuvik",
    "country": "Canada",
    "code_iata": "YEV",
    "code_icao": "CYEV",
    "latitude": 68.30419921880001,
    "longitude": -133.483001709,
    "timezone": "America/Edmonton"
  }, {
    "name": "Iqaluit Airport",
    "city": "Iqaluit",
    "country": "Canada",
    "code_iata": "YFB",
    "code_icao": "CYFB",
    "latitude": 63.756401062,
    "longitude": -68.5558013916,
    "timezone": "America/Toronto"
  }, {
    "name": "Fredericton Airport",
    "city": "Fredericton",
    "country": "Canada",
    "code_iata": "YFC",
    "code_icao": "CYFC",
    "latitude": 45.868900299072266,
    "longitude": -66.53720092773438,
    "timezone": "America/Halifax"
  }, {
    "name": "Flin Flon Airport",
    "city": "Flin Flon",
    "country": "Canada",
    "code_iata": "YFO",
    "code_icao": "CYFO",
    "latitude": 54.6781005859375,
    "longitude": -101.68199920654297,
    "timezone": "America/Winnipeg"
  }, {
    "name": "Fort Resolution Airport",
    "city": "Fort Resolution",
    "country": "Canada",
    "code_iata": "YFR",
    "code_icao": "CYFR",
    "latitude": 61.1808013916,
    "longitude": -113.690002441,
    "timezone": "America/Edmonton"
  }, {
    "name": "Fort Simpson Airport",
    "city": "Fort Simpson",
    "country": "Canada",
    "code_iata": "YFS",
    "code_icao": "CYFS",
    "latitude": 61.76020050048828,
    "longitude": -121.23699951171875,
    "timezone": "America/Edmonton"
  }, {
    "name": "Kingston Norman Rogers Airport",
    "city": "Kingston",
    "country": "Canada",
    "code_iata": "YGK",
    "code_icao": "CYGK",
    "latitude": 44.22529983520508,
    "longitude": -76.5969009399414,
    "timezone": "America/Toronto"
  }, {
    "name": "La Grande Rivière Airport",
    "city": "La Grande Riviere",
    "country": "Canada",
    "code_iata": "YGL",
    "code_icao": "CYGL",
    "latitude": 53.625301361083984,
    "longitude": -77.7042007446289,
    "timezone": "America/Toronto"
  }, {
    "name": "Gaspé (Michel-Pouliot) Airport",
    "city": "Gaspe",
    "country": "Canada",
    "code_iata": "YGP",
    "code_icao": "CYGP",
    "latitude": 48.7752990723,
    "longitude": -64.4785995483,
    "timezone": "America/Toronto"
  }, {
    "name": "Geraldton Greenstone Regional Airport",
    "city": "Geraldton",
    "country": "Canada",
    "code_iata": "YGQ",
    "code_icao": "CYGQ",
    "latitude": 49.77830123901367,
    "longitude": -86.93939971923828,
    "timezone": "America/Toronto"
  }, {
    "name": "Îles-de-la-Madeleine Airport",
    "city": "Iles De La Madeleine",
    "country": "Canada",
    "code_iata": "YGR",
    "code_icao": "CYGR",
    "latitude": 47.42470169067383,
    "longitude": -61.778099060058594,
    "timezone": "America/Toronto"
  }, {
    "name": "Hudson Bay Airport",
    "city": "Hudson Bay",
    "country": "Canada",
    "code_iata": "YHB",
    "code_icao": "CYHB",
    "latitude": 52.8166999817,
    "longitude": -102.310997009,
    "timezone": "America/Regina"
  }, {
    "name": "Dryden Regional Airport",
    "city": "Dryden",
    "country": "Canada",
    "code_iata": "YHD",
    "code_icao": "CYHD",
    "latitude": 49.83169937133789,
    "longitude": -92.74420166015625,
    "timezone": "America/Winnipeg"
  }, {
    "name": "Ulukhaktok Holman Airport",
    "city": "Holman Island",
    "country": "Canada",
    "code_iata": "YHI",
    "code_icao": "CYHI",
    "latitude": 70.76280212402344,
    "longitude": -117.80599975585938,
    "timezone": "America/Edmonton"
  }, {
    "name": "Gjoa Haven Airport",
    "city": "Gjoa Haven",
    "country": "Canada",
    "code_iata": "YHK",
    "code_icao": "CYHK",
    "latitude": 68.635597229,
    "longitude": -95.84970092770001,
    "timezone": "America/Edmonton"
  }, {
    "name": "John C. Munro Hamilton International Airport",
    "city": "Hamilton",
    "country": "Canada",
    "code_iata": "YHM",
    "code_icao": "CYHM",
    "latitude": 43.173599243199995,
    "longitude": -79.93499755859999,
    "timezone": "America/Toronto"
  }, {
    "name": "Montréal / Saint-Hubert Airport",
    "city": "Montreal",
    "country": "Canada",
    "code_iata": "YHU",
    "code_icao": "CYHU",
    "latitude": 45.5175018311,
    "longitude": -73.4169006348,
    "timezone": "America/Toronto"
  }, {
    "name": "Hay River / Merlyn Carter Airport",
    "city": "Hay River",
    "country": "Canada",
    "code_iata": "YHY",
    "code_icao": "CYHY",
    "latitude": 60.8396987915,
    "longitude": -115.782997131,
    "timezone": "America/Edmonton"
  }, {
    "name": "Halifax / Stanfield International Airport",
    "city": "Halifax",
    "country": "Canada",
    "code_iata": "YHZ",
    "code_icao": "CYHZ",
    "latitude": 44.8807983398,
    "longitude": -63.5085983276,
    "timezone": "America/Halifax"
  }, {
    "name": "Atikokan Municipal Airport",
    "city": "Atikokan",
    "country": "Canada",
    "code_iata": "YIB",
    "code_icao": "CYIB",
    "latitude": 48.7738990784,
    "longitude": -91.6386032104,
    "timezone": "America/Coral_Harbour"
  }, {
    "name": "Pond Inlet Airport",
    "city": "Pond Inlet",
    "country": "Canada",
    "code_iata": "YIO",
    "code_icao": "CYIO",
    "latitude": 72.6832962036,
    "longitude": -77.9666976929,
    "timezone": "America/Toronto"
  }, {
    "name": "St Jean Airport",
    "city": "St. Jean",
    "country": "Canada",
    "code_iata": "YJN",
    "code_icao": "CYJN",
    "latitude": 45.29439926147461,
    "longitude": -73.28109741210938,
    "timezone": "America/Toronto"
  }, {
    "name": "Stephenville Airport",
    "city": "Stephenville",
    "country": "Canada",
    "code_iata": "YJT",
    "code_icao": "CYJT",
    "latitude": 48.5442008972168,
    "longitude": -58.54999923706055,
    "timezone": "America/St_Johns"
  }, {
    "name": "Kamloops Airport",
    "city": "Kamloops",
    "country": "Canada",
    "code_iata": "YKA",
    "code_icao": "CYKA",
    "latitude": 50.7022018433,
    "longitude": -120.444000244,
    "timezone": "America/Vancouver"
  }, {
    "name": "Waterloo Airport",
    "city": "Waterloo",
    "country": "Canada",
    "code_iata": "YKF",
    "code_icao": "CYKF",
    "latitude": 43.460800170899994,
    "longitude": -80.3786010742,
    "timezone": "America/Toronto"
  }, {
    "name": "Schefferville Airport",
    "city": "Schefferville",
    "country": "Canada",
    "code_iata": "YKL",
    "code_icao": "CYKL",
    "latitude": 54.805301666259766,
    "longitude": -66.8052978515625,
    "timezone": "America/Toronto"
  }, {
    "name": "Kindersley Airport",
    "city": "Kindersley",
    "country": "Canada",
    "code_iata": "YKY",
    "code_icao": "CYKY",
    "latitude": 51.5175018311,
    "longitude": -109.180999756,
    "timezone": "America/Regina"
  }, {
    "name": "Buttonville Municipal Airport",
    "city": "Toronto",
    "country": "Canada",
    "code_iata": "YKZ",
    "code_icao": "CYKZ",
    "latitude": 43.86220169067383,
    "longitude": -79.37000274658203,
    "timezone": "America/Toronto"
  }, {
    "name": "Chapleau Airport",
    "city": "Chapleau",
    "country": "Canada",
    "code_iata": "YLD",
    "code_icao": "CYLD",
    "latitude": 47.81999969482422,
    "longitude": -83.3467025756836,
    "timezone": "America/Toronto"
  }, {
    "name": "Meadow Lake Airport",
    "city": "Meadow Lake",
    "country": "Canada",
    "code_iata": "YLJ",
    "code_icao": "CYLJ",
    "latitude": 54.125301361083984,
    "longitude": -108.52300262451172,
    "timezone": "America/Regina"
  }, {
    "name": "Lloydminster Airport",
    "city": "Lloydminster",
    "country": "Canada",
    "code_iata": "YLL",
    "code_icao": "CYLL",
    "latitude": 53.309200286865234,
    "longitude": -110.072998046875,
    "timezone": "America/Edmonton"
  }, {
    "name": "Alert Airport",
    "city": "Alert",
    "country": "Canada",
    "code_iata": "YLT",
    "code_icao": "CYLT",
    "latitude": 82.51779937740001,
    "longitude": -62.2806015015,
    "timezone": "America/Toronto"
  }, {
    "name": "Kelowna International Airport",
    "city": "Kelowna",
    "country": "Canada",
    "code_iata": "YLW",
    "code_icao": "CYLW",
    "latitude": 49.9561004639,
    "longitude": -119.377998352,
    "timezone": "America/Vancouver"
  }, {
    "name": "Mayo Airport",
    "city": "Mayo",
    "country": "Canada",
    "code_iata": "YMA",
    "code_icao": "CYMA",
    "latitude": 63.61640167236328,
    "longitude": -135.8679962158203,
    "timezone": "America/Vancouver"
  }, {
    "name": "Moose Jaw Air Vice Marshal C. M. McEwen Airport",
    "city": "Moose Jaw",
    "country": "Canada",
    "code_iata": "YMJ",
    "code_icao": "CYMJ",
    "latitude": 50.330299377441406,
    "longitude": -105.55899810791016,
    "timezone": "America/Regina"
  }, {
    "name": "Fort McMurray Airport",
    "city": "Fort Mcmurray",
    "country": "Canada",
    "code_iata": "YMM",
    "code_icao": "CYMM",
    "latitude": 56.653301239,
    "longitude": -111.222000122,
    "timezone": "America/Edmonton"
  }, {
    "name": "Moosonee Airport",
    "city": "Moosonee",
    "country": "Canada",
    "code_iata": "YMO",
    "code_icao": "CYMO",
    "latitude": 51.291099548339844,
    "longitude": -80.60780334472656,
    "timezone": "America/Toronto"
  }, {
    "name": "Maniwaki Airport",
    "city": "Maniwaki",
    "country": "Canada",
    "code_iata": "YMW",
    "code_icao": "CYMW",
    "latitude": 46.2728004456,
    "longitude": -75.9906005859,
    "timezone": "America/Toronto"
  }, {
    "name": "Montreal International (Mirabel) Airport",
    "city": "Montreal",
    "country": "Canada",
    "code_iata": "YMX",
    "code_icao": "CYMX",
    "latitude": 45.6795005798,
    "longitude": -74.0386962891,
    "timezone": "America/Toronto"
  }, {
    "name": "Natashquan Airport",
    "city": "Natashquan",
    "country": "Canada",
    "code_iata": "YNA",
    "code_icao": "CYNA",
    "latitude": 50.189998626708984,
    "longitude": -61.78919982910156,
    "timezone": "America/Toronto"
  }, {
    "name": "Ottawa / Gatineau Airport",
    "city": "Gatineau",
    "country": "Canada",
    "code_iata": "YND",
    "code_icao": "CYND",
    "latitude": 45.521701812699995,
    "longitude": -75.5635986328,
    "timezone": "America/Toronto"
  }, {
    "name": "Matagami Airport",
    "city": "Matagami",
    "country": "Canada",
    "code_iata": "YNM",
    "code_icao": "CYNM",
    "latitude": 49.76169967651367,
    "longitude": -77.80280303955078,
    "timezone": "America/Toronto"
  }, {
    "name": "Old Crow Airport",
    "city": "Old Crow",
    "country": "Canada",
    "code_iata": "YOC",
    "code_icao": "CYOC",
    "latitude": 67.57060241699219,
    "longitude": -139.83900451660156,
    "timezone": "America/Vancouver"
  }, {
    "name": "CFB Cold Lake",
    "city": "Cold Lake",
    "country": "Canada",
    "code_iata": "YOD",
    "code_icao": "CYOD",
    "latitude": 54.404998779296875,
    "longitude": -110.27899932861328,
    "timezone": "America/Edmonton"
  }, {
    "name": "High Level Airport",
    "city": "High Level",
    "country": "Canada",
    "code_iata": "YOJ",
    "code_icao": "CYOJ",
    "latitude": 58.62139892578125,
    "longitude": -117.16500091552734,
    "timezone": "America/Edmonton"
  }, {
    "name": "Ottawa Macdonald-Cartier International Airport",
    "city": "Ottawa",
    "country": "Canada",
    "code_iata": "YOW",
    "code_icao": "CYOW",
    "latitude": 45.3224983215332,
    "longitude": -75.66919708251953,
    "timezone": "America/Toronto"
  }, {
    "name": "Prince Albert Glass Field",
    "city": "Prince Albert",
    "country": "Canada",
    "code_iata": "YPA",
    "code_icao": "CYPA",
    "latitude": 53.214199066199996,
    "longitude": -105.672996521,
    "timezone": "America/Regina"
  }, {
    "name": "Peace River Airport",
    "city": "Peace River",
    "country": "Canada",
    "code_iata": "YPE",
    "code_icao": "CYPE",
    "latitude": 56.226898193359375,
    "longitude": -117.4469985961914,
    "timezone": "America/Edmonton"
  }, {
    "name": "Southport Airport",
    "city": "Portage-la-prairie",
    "country": "Canada",
    "code_iata": "YPG",
    "code_icao": "CYPG",
    "latitude": 49.903099,
    "longitude": -98.273817,
    "timezone": "America/Winnipeg"
  }, {
    "name": "Pickle Lake Airport",
    "city": "Pickle Lake",
    "country": "Canada",
    "code_iata": "YPL",
    "code_icao": "CYPL",
    "latitude": 51.4463996887207,
    "longitude": -90.21420288085938,
    "timezone": "America/Coral_Harbour"
  }, {
    "name": "Port Menier Airport",
    "city": "Port Menier",
    "country": "Canada",
    "code_iata": "YPN",
    "code_icao": "CYPN",
    "latitude": 49.83639907836914,
    "longitude": -64.2885971069336,
    "timezone": "America/Toronto"
  }, {
    "name": "Peterborough Airport",
    "city": "Peterborough",
    "country": "Canada",
    "code_iata": "YPQ",
    "code_icao": "CYPQ",
    "latitude": 44.22999954223633,
    "longitude": -78.36329650878906,
    "timezone": "America/Toronto"
  }, {
    "name": "Prince Rupert Airport",
    "city": "Prince Pupert",
    "country": "Canada",
    "code_iata": "YPR",
    "code_icao": "CYPR",
    "latitude": 54.286098480199996,
    "longitude": -130.445007324,
    "timezone": "America/Vancouver"
  }, {
    "name": "Fort Chipewyan Airport",
    "city": "Fort Chipewyan",
    "country": "Canada",
    "code_iata": "YPY",
    "code_icao": "CYPY",
    "latitude": 58.7672004699707,
    "longitude": -111.11699676513672,
    "timezone": "America/Edmonton"
  }, {
    "name": "Muskoka Airport",
    "city": "Muskoka",
    "country": "Canada",
    "code_iata": "YQA",
    "code_icao": "CYQA",
    "latitude": 44.974700927734375,
    "longitude": -79.30329895019531,
    "timezone": "America/Toronto"
  }, {
    "name": "Quebec Jean Lesage International Airport",
    "city": "Quebec",
    "country": "Canada",
    "code_iata": "YQB",
    "code_icao": "CYQB",
    "latitude": 46.7911,
    "longitude": -71.393303,
    "timezone": "America/Toronto"
  }, {
    "name": "Red Deer Regional Airport",
    "city": "Red Deer Industrial",
    "country": "Canada",
    "code_iata": "YQF",
    "code_icao": "CYQF",
    "latitude": 52.18220138549805,
    "longitude": -113.89399719238281,
    "timezone": "America/Edmonton"
  }, {
    "name": "Windsor Airport",
    "city": "Windsor",
    "country": "Canada",
    "code_iata": "YQG",
    "code_icao": "CYQG",
    "latitude": 42.27560043334961,
    "longitude": -82.95559692382812,
    "timezone": "America/Toronto"
  }, {
    "name": "Watson Lake Airport",
    "city": "Watson Lake",
    "country": "Canada",
    "code_iata": "YQH",
    "code_icao": "CYQH",
    "latitude": 60.11640167236328,
    "longitude": -128.82200622558594,
    "timezone": "America/Vancouver"
  }, {
    "name": "Kenora Airport",
    "city": "Kenora",
    "country": "Canada",
    "code_iata": "YQK",
    "code_icao": "CYQK",
    "latitude": 49.788299560546875,
    "longitude": -94.36309814453125,
    "timezone": "America/Winnipeg"
  }, {
    "name": "Lethbridge County Airport",
    "city": "Lethbridge",
    "country": "Canada",
    "code_iata": "YQL",
    "code_icao": "CYQL",
    "latitude": 49.6302986145,
    "longitude": -112.800003052,
    "timezone": "America/Edmonton"
  }, {
    "name": "Greater Moncton International Airport",
    "city": "Moncton",
    "country": "Canada",
    "code_iata": "YQM",
    "code_icao": "CYQM",
    "latitude": 46.11220169067383,
    "longitude": -64.67859649658203,
    "timezone": "America/Halifax"
  }, {
    "name": "Comox Airport",
    "city": "Comox",
    "country": "Canada",
    "code_iata": "YQQ",
    "code_icao": "CYQQ",
    "latitude": 49.71080017089844,
    "longitude": -124.88700103759766,
    "timezone": "America/Vancouver"
  }, {
    "name": "Regina International Airport",
    "city": "Regina",
    "country": "Canada",
    "code_iata": "YQR",
    "code_icao": "CYQR",
    "latitude": 50.43190002441406,
    "longitude": -104.66600036621094,
    "timezone": "America/Regina"
  }, {
    "name": "Thunder Bay Airport",
    "city": "Thunder Bay",
    "country": "Canada",
    "code_iata": "YQT",
    "code_icao": "CYQT",
    "latitude": 48.37189865112305,
    "longitude": -89.32389831542969,
    "timezone": "America/Toronto"
  }, {
    "name": "Grande Prairie Airport",
    "city": "Grande Prairie",
    "country": "Canada",
    "code_iata": "YQU",
    "code_icao": "CYQU",
    "latitude": 55.1796989441,
    "longitude": -118.885002136,
    "timezone": "America/Edmonton"
  }, {
    "name": "Yorkton Municipal Airport",
    "city": "Yorkton",
    "country": "Canada",
    "code_iata": "YQV",
    "code_icao": "CYQV",
    "latitude": 51.26470184326172,
    "longitude": -102.46199798583984,
    "timezone": "America/Regina"
  }, {
    "name": "North Battleford Airport",
    "city": "North Battleford",
    "country": "Canada",
    "code_iata": "YQW",
    "code_icao": "CYQW",
    "latitude": 52.76919937133789,
    "longitude": -108.24400329589844,
    "timezone": "America/Regina"
  }, {
    "name": "Gander International Airport",
    "city": "Gander",
    "country": "Canada",
    "code_iata": "YQX",
    "code_icao": "CYQX",
    "latitude": 48.9369010925293,
    "longitude": -54.56809997558594,
    "timezone": "America/St_Johns"
  }, {
    "name": "Sydney / J.A. Douglas McCurdy Airport",
    "city": "Sydney",
    "country": "Canada",
    "code_iata": "YQY",
    "code_icao": "CYQY",
    "latitude": 46.161399841299996,
    "longitude": -60.0477981567,
    "timezone": "America/Halifax"
  }, {
    "name": "Quesnel Airport",
    "city": "Quesnel",
    "country": "Canada",
    "code_iata": "YQZ",
    "code_icao": "CYQZ",
    "latitude": 53.026100158691406,
    "longitude": -122.51000213623047,
    "timezone": "America/Vancouver"
  }, {
    "name": "Resolute Bay Airport",
    "city": "Resolute",
    "country": "Canada",
    "code_iata": "YRB",
    "code_icao": "CYRB",
    "latitude": 74.7169036865,
    "longitude": -94.9693984985,
    "timezone": "America/Winnipeg"
  }, {
    "name": "Rivière-du-Loup Airport",
    "city": "Riviere Du Loup",
    "country": "Canada",
    "code_iata": "YRI",
    "code_icao": "CYRI",
    "latitude": 47.764400482177734,
    "longitude": -69.58470153808594,
    "timezone": "America/Toronto"
  }, {
    "name": "Roberval Airport",
    "city": "Roberval",
    "country": "Canada",
    "code_iata": "YRJ",
    "code_icao": "CYRJ",
    "latitude": 48.52000045776367,
    "longitude": -72.2656021118164,
    "timezone": "America/Toronto"
  }, {
    "name": "Rocky Mountain House Airport",
    "city": "Rocky Mountain House",
    "country": "Canada",
    "code_iata": "YRM",
    "code_icao": "CYRM",
    "latitude": 52.4296989441,
    "longitude": -114.903999329,
    "timezone": "America/Edmonton"
  }, {
    "name": "Rankin Inlet Airport",
    "city": "Rankin Inlet",
    "country": "Canada",
    "code_iata": "YRT",
    "code_icao": "CYRT",
    "latitude": 62.8114013672,
    "longitude": -92.1157989502,
    "timezone": "America/Winnipeg"
  }, {
    "name": "Sudbury Airport",
    "city": "Sudbury",
    "country": "Canada",
    "code_iata": "YSB",
    "code_icao": "CYSB",
    "latitude": 46.625,
    "longitude": -80.79889678955078,
    "timezone": "America/Toronto"
  }, {
    "name": "Sherbrooke Airport",
    "city": "Sherbrooke",
    "country": "Canada",
    "code_iata": "YSC",
    "code_icao": "CYSC",
    "latitude": 45.4385986328125,
    "longitude": -71.69139862060547,
    "timezone": "America/Toronto"
  }, {
    "name": "Saint John Airport",
    "city": "St. John",
    "country": "Canada",
    "code_iata": "YSJ",
    "code_icao": "CYSJ",
    "latitude": 45.31610107421875,
    "longitude": -65.89029693603516,
    "timezone": "America/Halifax"
  }, {
    "name": "Fort Smith Airport",
    "city": "Fort Smith",
    "country": "Canada",
    "code_iata": "YSM",
    "code_icao": "CYSM",
    "latitude": 60.020301818847656,
    "longitude": -111.96199798583984,
    "timezone": "America/Edmonton"
  }, {
    "name": "Nanisivik Airport",
    "city": "Nanisivik",
    "country": "Canada",
    "code_iata": "YSR",
    "code_icao": "CYSR",
    "latitude": 72.982201,
    "longitude": -84.613602,
    "timezone": "America/Toronto"
  }, {
    "name": "Summerside Airport",
    "city": "Summerside",
    "country": "Canada",
    "code_iata": "YSU",
    "code_icao": "CYSU",
    "latitude": 46.44060134887695,
    "longitude": -63.83359909057617,
    "timezone": "America/Halifax"
  }, {
    "name": "Sachs Harbour (David Nasogaluak Jr. Saaryuaq) Airport",
    "city": "Sachs Harbour",
    "country": "Canada",
    "code_iata": "YSY",
    "code_icao": "CYSY",
    "latitude": 71.9938964844,
    "longitude": -125.242996216,
    "timezone": "America/Edmonton"
  }, {
    "name": "Cape Dorset Airport",
    "city": "Cape Dorset",
    "country": "Canada",
    "code_iata": "YTE",
    "code_icao": "CYTE",
    "latitude": 64.2300033569,
    "longitude": -76.5267028809,
    "timezone": "America/Toronto"
  }, {
    "name": "Thompson Airport",
    "city": "Thompson",
    "country": "Canada",
    "code_iata": "YTH",
    "code_icao": "CYTH",
    "latitude": 55.80110168457031,
    "longitude": -97.86419677734375,
    "timezone": "America/Winnipeg"
  }, {
    "name": "CFB Trenton",
    "city": "Trenton",
    "country": "Canada",
    "code_iata": "YTR",
    "code_icao": "CYTR",
    "latitude": 44.118900299072266,
    "longitude": -77.5280990600586,
    "timezone": "America/Toronto"
  }, {
    "name": "Timmins/Victor M. Power",
    "city": "Timmins",
    "country": "Canada",
    "code_iata": "YTS",
    "code_icao": "CYTS",
    "latitude": 48.569698333699996,
    "longitude": -81.376701355,
    "timezone": "America/Toronto"
  }, {
    "name": "Billy Bishop Toronto City Centre Airport",
    "city": "Toronto",
    "country": "Canada",
    "code_iata": "YTZ",
    "code_icao": "CYTZ",
    "latitude": 43.627499,
    "longitude": -79.396202,
    "timezone": "America/Toronto"
  }, {
    "name": "Tuktoyaktuk Airport",
    "city": "Tuktoyaktuk",
    "country": "Canada",
    "code_iata": "YUB",
    "code_icao": "CYUB",
    "latitude": 69.43329620361328,
    "longitude": -133.0260009765625,
    "timezone": "America/Edmonton"
  }, {
    "name": "Montreal / Pierre Elliott Trudeau International Airport",
    "city": "Montreal",
    "country": "Canada",
    "code_iata": "YUL",
    "code_icao": "CYUL",
    "latitude": 45.4706001282,
    "longitude": -73.7407989502,
    "timezone": "America/Toronto"
  }, {
    "name": "Repulse Bay Airport",
    "city": "Repulse Bay",
    "country": "Canada",
    "code_iata": "YUT",
    "code_icao": "CYUT",
    "latitude": 66.5214004517,
    "longitude": -86.22470092770001,
    "timezone": "America/Winnipeg"
  }, {
    "name": "Hall Beach Airport",
    "city": "Hall Beach",
    "country": "Canada",
    "code_iata": "YUX",
    "code_icao": "CYUX",
    "latitude": 68.77610015869999,
    "longitude": -81.2425,
    "timezone": "America/Toronto"
  }, {
    "name": "Rouyn Noranda Airport",
    "city": "Rouyn",
    "country": "Canada",
    "code_iata": "YUY",
    "code_icao": "CYUY",
    "latitude": 48.20610046386719,
    "longitude": -78.83560180664062,
    "timezone": "America/Toronto"
  }, {
    "name": "La Ronge Airport",
    "city": "La Ronge",
    "country": "Canada",
    "code_iata": "YVC",
    "code_icao": "CYVC",
    "latitude": 55.151401519800004,
    "longitude": -105.262001038,
    "timezone": "America/Regina"
  }, {
    "name": "Vermilion Airport",
    "city": "Vermillion",
    "country": "Canada",
    "code_iata": "YVG",
    "code_icao": "CYVG",
    "latitude": 53.355800628699996,
    "longitude": -110.823997498,
    "timezone": "America/Edmonton"
  }, {
    "name": "Qikiqtarjuaq Airport",
    "city": "Broughton Island",
    "country": "Canada",
    "code_iata": "YVM",
    "code_icao": "CYVM",
    "latitude": 67.5457992554,
    "longitude": -64.03140258789999,
    "timezone": "America/Toronto"
  }, {
    "name": "Val-d'Or Airport",
    "city": "Val D'or",
    "country": "Canada",
    "code_iata": "YVO",
    "code_icao": "CYVO",
    "latitude": 48.0532989502,
    "longitude": -77.7827987671,
    "timezone": "America/Toronto"
  }, {
    "name": "Kuujjuaq Airport",
    "city": "Quujjuaq",
    "country": "Canada",
    "code_iata": "YVP",
    "code_icao": "CYVP",
    "latitude": 58.096099853515625,
    "longitude": -68.4269027709961,
    "timezone": "America/Toronto"
  }, {
    "name": "Norman Wells Airport",
    "city": "Norman Wells",
    "country": "Canada",
    "code_iata": "YVQ",
    "code_icao": "CYVQ",
    "latitude": 65.28160095214844,
    "longitude": -126.7979965209961,
    "timezone": "America/Edmonton"
  }, {
    "name": "Vancouver International Airport",
    "city": "Vancouver",
    "country": "Canada",
    "code_iata": "YVR",
    "code_icao": "CYVR",
    "latitude": 49.193901062,
    "longitude": -123.183998108,
    "timezone": "America/Vancouver"
  }, {
    "name": "Buffalo Narrows Airport",
    "city": "Buffalo Narrows",
    "country": "Canada",
    "code_iata": "YVT",
    "code_icao": "CYVT",
    "latitude": 55.8418998718,
    "longitude": -108.417999268,
    "timezone": "America/Regina"
  }, {
    "name": "Wiarton Airport",
    "city": "Wiarton",
    "country": "Canada",
    "code_iata": "YVV",
    "code_icao": "CYVV",
    "latitude": 44.7458,
    "longitude": -81.107201,
    "timezone": "America/Toronto"
  }, {
    "name": "Petawawa Airport",
    "city": "Petawawa",
    "country": "Canada",
    "code_iata": "YWA",
    "code_icao": "CYWA",
    "latitude": 45.95220184326172,
    "longitude": -77.31919860839844,
    "timezone": "America/Toronto"
  }, {
    "name": "Winnipeg / James Armstrong Richardson International Airport",
    "city": "Winnipeg",
    "country": "Canada",
    "code_iata": "YWG",
    "code_icao": "CYWG",
    "latitude": 49.909999847399995,
    "longitude": -97.2398986816,
    "timezone": "America/Winnipeg"
  }, {
    "name": "Wabush Airport",
    "city": "Wabush",
    "country": "Canada",
    "code_iata": "YWK",
    "code_icao": "CYWK",
    "latitude": 52.92190170288086,
    "longitude": -66.8644027709961,
    "timezone": "America/Halifax"
  }, {
    "name": "Williams Lake Airport",
    "city": "Williams Lake",
    "country": "Canada",
    "code_iata": "YWL",
    "code_icao": "CYWL",
    "latitude": 52.1831016541,
    "longitude": -122.054000854,
    "timezone": "America/Vancouver"
  }, {
    "name": "Wrigley Airport",
    "city": "Wrigley",
    "country": "Canada",
    "code_iata": "YWY",
    "code_icao": "CYWY",
    "latitude": 63.20940017700195,
    "longitude": -123.43699645996094,
    "timezone": "America/Edmonton"
  }, {
    "name": "Cranbrook/Canadian Rockies International Airport",
    "city": "Cranbrook",
    "country": "Canada",
    "code_iata": "YXC",
    "code_icao": "CYXC",
    "latitude": 49.610801696777,
    "longitude": -115.78199768066,
    "timezone": "America/Edmonton"
  }, {
    "name": "Edmonton City Centre (Blatchford Field) Airport",
    "city": "Edmonton",
    "country": "Canada",
    "code_iata": "YXD",
    "code_icao": "CYXD",
    "latitude": 53.5724983215,
    "longitude": -113.521003723,
    "timezone": "America/Edmonton"
  }, {
    "name": "Saskatoon John G. Diefenbaker International Airport",
    "city": "Saskatoon",
    "country": "Canada",
    "code_iata": "YXE",
    "code_icao": "CYXE",
    "latitude": 52.170799255371094,
    "longitude": -106.69999694824219,
    "timezone": "America/Regina"
  }, {
    "name": "Medicine Hat Airport",
    "city": "Medicine Hat",
    "country": "Canada",
    "code_iata": "YXH",
    "code_icao": "CYXH",
    "latitude": 50.01890182495117,
    "longitude": -110.72100067138672,
    "timezone": "America/Edmonton"
  }, {
    "name": "Fort St John Airport",
    "city": "Fort Saint John",
    "country": "Canada",
    "code_iata": "YXJ",
    "code_icao": "CYXJ",
    "latitude": 56.23809814453125,
    "longitude": -120.73999786376953,
    "timezone": "America/Dawson_Creek"
  }, {
    "name": "Sioux Lookout Airport",
    "city": "Sioux Lookout",
    "country": "Canada",
    "code_iata": "YXL",
    "code_icao": "CYXL",
    "latitude": 50.11389923095703,
    "longitude": -91.9052963256836,
    "timezone": "America/Winnipeg"
  }, {
    "name": "Pangnirtung Airport",
    "city": "Pangnirtung",
    "country": "Canada",
    "code_iata": "YXP",
    "code_icao": "CYXP",
    "latitude": 66.1449966431,
    "longitude": -65.71360015869999,
    "timezone": "America/Toronto"
  }, {
    "name": "Earlton (Timiskaming Regional) Airport",
    "city": "Earlton",
    "country": "Canada",
    "code_iata": "YXR",
    "code_icao": "CYXR",
    "latitude": 47.697400654599996,
    "longitude": -79.8473453522,
    "timezone": "America/Toronto"
  }, {
    "name": "Prince George Airport",
    "city": "Prince George",
    "country": "Canada",
    "code_iata": "YXS",
    "code_icao": "CYXS",
    "latitude": 53.8894004822,
    "longitude": -122.679000854,
    "timezone": "America/Vancouver"
  }, {
    "name": "Northwest Regional Airport Terrace-Kitimat",
    "city": "Terrace",
    "country": "Canada",
    "code_iata": "YXT",
    "code_icao": "CYXT",
    "latitude": 54.468498,
    "longitude": -128.576009,
    "timezone": "America/Vancouver"
  }, {
    "name": "London Airport",
    "city": "London",
    "country": "Canada",
    "code_iata": "YXU",
    "code_icao": "CYXU",
    "latitude": 43.035599,
    "longitude": -81.1539,
    "timezone": "America/Toronto"
  }, {
    "name": "Abbotsford Airport",
    "city": "Abbotsford",
    "country": "Canada",
    "code_iata": "YXX",
    "code_icao": "CYXX",
    "latitude": 49.025299072265625,
    "longitude": -122.36100006103516,
    "timezone": "America/Vancouver"
  }, {
    "name": "Whitehorse / Erik Nielsen International Airport",
    "city": "Whitehorse",
    "country": "Canada",
    "code_iata": "YXY",
    "code_icao": "CYXY",
    "latitude": 60.7095985413,
    "longitude": -135.067001343,
    "timezone": "America/Vancouver"
  }, {
    "name": "North Bay Airport",
    "city": "North Bay",
    "country": "Canada",
    "code_iata": "YYB",
    "code_icao": "CYYB",
    "latitude": 46.36360168457031,
    "longitude": -79.42279815673828,
    "timezone": "America/Toronto"
  }, {
    "name": "Calgary International Airport",
    "city": "Calgary",
    "country": "Canada",
    "code_iata": "YYC",
    "code_icao": "CYYC",
    "latitude": 51.113899231,
    "longitude": -114.019996643,
    "timezone": "America/Edmonton"
  }, {
    "name": "Smithers Airport",
    "city": "Smithers",
    "country": "Canada",
    "code_iata": "YYD",
    "code_icao": "CYYD",
    "latitude": 54.82469940185547,
    "longitude": -127.18299865722656,
    "timezone": "America/Vancouver"
  }, {
    "name": "Fort Nelson Airport",
    "city": "Fort Nelson",
    "country": "Canada",
    "code_iata": "YYE",
    "code_icao": "CYYE",
    "latitude": 58.8363990784,
    "longitude": -122.597000122,
    "timezone": "America/Vancouver"
  }, {
    "name": "Penticton Airport",
    "city": "Penticton",
    "country": "Canada",
    "code_iata": "YYF",
    "code_icao": "CYYF",
    "latitude": 49.46310043334961,
    "longitude": -119.60199737548828,
    "timezone": "America/Vancouver"
  }, {
    "name": "Charlottetown Airport",
    "city": "Charlottetown",
    "country": "Canada",
    "code_iata": "YYG",
    "code_icao": "CYYG",
    "latitude": 46.290000915527344,
    "longitude": -63.12110137939453,
    "timezone": "America/Halifax"
  }, {
    "name": "Taloyoak Airport",
    "city": "Spence Bay",
    "country": "Canada",
    "code_iata": "YYH",
    "code_icao": "CYYH",
    "latitude": 69.5466995239,
    "longitude": -93.5766983032,
    "timezone": "America/Edmonton"
  }, {
    "name": "Victoria International Airport",
    "city": "Victoria",
    "country": "Canada",
    "code_iata": "YYJ",
    "code_icao": "CYYJ",
    "latitude": 48.646900177,
    "longitude": -123.426002502,
    "timezone": "America/Vancouver"
  }, {
    "name": "Lynn Lake Airport",
    "city": "Lynn Lake",
    "country": "Canada",
    "code_iata": "YYL",
    "code_icao": "CYYL",
    "latitude": 56.86389923095703,
    "longitude": -101.07599639892578,
    "timezone": "America/Winnipeg"
  }, {
    "name": "Swift Current Airport",
    "city": "Swift Current",
    "country": "Canada",
    "code_iata": "YYN",
    "code_icao": "CYYN",
    "latitude": 50.291900634799994,
    "longitude": -107.691001892,
    "timezone": "America/Regina"
  }, {
    "name": "Churchill Airport",
    "city": "Churchill",
    "country": "Canada",
    "code_iata": "YYQ",
    "code_icao": "CYYQ",
    "latitude": 58.739200592041016,
    "longitude": -94.06500244140625,
    "timezone": "America/Winnipeg"
  }, {
    "name": "Goose Bay Airport",
    "city": "Goose Bay",
    "country": "Canada",
    "code_iata": "YYR",
    "code_icao": "CYYR",
    "latitude": 53.3191986084,
    "longitude": -60.4258003235,
    "timezone": "America/Halifax"
  }, {
    "name": "St. John's International Airport",
    "city": "St. John's",
    "country": "Canada",
    "code_iata": "YYT",
    "code_icao": "CYYT",
    "latitude": 47.618598938,
    "longitude": -52.7518997192,
    "timezone": "America/St_Johns"
  }, {
    "name": "Kapuskasing Airport",
    "city": "Kapuskasing",
    "country": "Canada",
    "code_iata": "YYU",
    "code_icao": "CYYU",
    "latitude": 49.41389846801758,
    "longitude": -82.46749877929688,
    "timezone": "America/Toronto"
  }, {
    "name": "Armstrong Airport",
    "city": "Armstrong",
    "country": "Canada",
    "code_iata": "YYW",
    "code_icao": "CYYW",
    "latitude": 50.29029846191406,
    "longitude": -88.90969848632812,
    "timezone": "America/Toronto"
  }, {
    "name": "Mont Joli Airport",
    "city": "Mont Joli",
    "country": "Canada",
    "code_iata": "YYY",
    "code_icao": "CYYY",
    "latitude": 48.60860061645508,
    "longitude": -68.20809936523438,
    "timezone": "America/Toronto"
  }, {
    "name": "Lester B. Pearson International Airport",
    "city": "Toronto",
    "country": "Canada",
    "code_iata": "YYZ",
    "code_icao": "CYYZ",
    "latitude": 43.6772003174,
    "longitude": -79.63059997559999,
    "timezone": "America/Toronto"
  }, {
    "name": "Downsview Airport",
    "city": "Toronto",
    "country": "Canada",
    "code_iata": "YZD",
    "code_icao": "CYZD",
    "latitude": 43.74250030517578,
    "longitude": -79.4655990600586,
    "timezone": "America/Toronto"
  }, {
    "name": "Gore Bay Manitoulin Airport",
    "city": "Gore Bay",
    "country": "Canada",
    "code_iata": "YZE",
    "code_icao": "CYZE",
    "latitude": 45.88529968261719,
    "longitude": -82.56780242919922,
    "timezone": "America/Toronto"
  }, {
    "name": "Yellowknife Airport",
    "city": "Yellowknife",
    "country": "Canada",
    "code_iata": "YZF",
    "code_icao": "CYZF",
    "latitude": 62.462799072265625,
    "longitude": -114.44000244140625,
    "timezone": "America/Edmonton"
  }, {
    "name": "Slave Lake Airport",
    "city": "Slave Lake",
    "country": "Canada",
    "code_iata": "YZH",
    "code_icao": "CYZH",
    "latitude": 55.2930984497,
    "longitude": -114.777000427,
    "timezone": "America/Edmonton"
  }, {
    "name": "Sandspit Airport",
    "city": "Sandspit",
    "country": "Canada",
    "code_iata": "YZP",
    "code_icao": "CYZP",
    "latitude": 53.25429916379999,
    "longitude": -131.813995361,
    "timezone": "America/Vancouver"
  }, {
    "name": "Chris Hadfield Airport",
    "city": "Sarnia",
    "country": "Canada",
    "code_iata": "YZR",
    "code_icao": "CYZR",
    "latitude": 42.9994010925293,
    "longitude": -82.30889892578125,
    "timezone": "America/Toronto"
  }, {
    "name": "Port Hardy Airport",
    "city": "Port Hardy",
    "country": "Canada",
    "code_iata": "YZT",
    "code_icao": "CYZT",
    "latitude": 50.680599212646484,
    "longitude": -127.36699676513672,
    "timezone": "America/Vancouver"
  }, {
    "name": "Whitecourt Airport",
    "city": "Whitecourt",
    "country": "Canada",
    "code_iata": "YZU",
    "code_icao": "CYZU",
    "latitude": 54.14390182495117,
    "longitude": -115.78700256347656,
    "timezone": "America/Edmonton"
  }, {
    "name": "Sept-Îles Airport",
    "city": "Sept-iles",
    "country": "Canada",
    "code_iata": "YZV",
    "code_icao": "CYZV",
    "latitude": 50.22330093383789,
    "longitude": -66.2656021118164,
    "timezone": "America/Toronto"
  }, {
    "name": "Teslin Airport",
    "city": "Teslin",
    "country": "Canada",
    "code_iata": "YZW",
    "code_icao": "CYZW",
    "latitude": 60.17279815673828,
    "longitude": -132.7429962158203,
    "timezone": "America/Vancouver"
  }, {
    "name": "CFB Greenwood",
    "city": "Greenwood",
    "country": "Canada",
    "code_iata": "YZX",
    "code_icao": "CYZX",
    "latitude": 44.98440170288086,
    "longitude": -64.91690063476562,
    "timezone": "America/Halifax"
  }, {
    "name": "Faro Airport",
    "city": "Faro",
    "country": "Canada",
    "code_iata": "ZFA",
    "code_icao": "CZFA",
    "latitude": 62.20750045776367,
    "longitude": -133.37600708007812,
    "timezone": "America/Vancouver"
  }, {
    "name": "Fort Mcpherson Airport",
    "city": "Fort Mcpherson",
    "country": "Canada",
    "code_iata": "ZFM",
    "code_icao": "CZFM",
    "latitude": 67.40750122070312,
    "longitude": -134.86099243164062,
    "timezone": "America/Edmonton"
  }, {
    "name": "Soummam Airport",
    "city": "Bejaja",
    "country": "Algeria",
    "code_iata": "BJA",
    "code_icao": "DAAE",
    "latitude": 36.7120018005,
    "longitude": 5.0699200630200005,
    "timezone": "Africa/Algiers"
  }, {
    "name": "Houari Boumediene Airport",
    "city": "Algier",
    "country": "Algeria",
    "code_iata": "ALG",
    "code_icao": "DAAG",
    "latitude": 36.691001892089844,
    "longitude": 3.215409994125366,
    "timezone": "Africa/Algiers"
  }, {
    "name": "Djanet Inedbirene Airport",
    "city": "Djanet",
    "country": "Algeria",
    "code_iata": "DJG",
    "code_icao": "DAAJ",
    "latitude": 24.292800903299998,
    "longitude": 9.45244026184,
    "timezone": "Africa/Algiers"
  }, {
    "name": "Boufarik Airport",
    "city": "Boufarik",
    "country": "Algeria",
    "code_iata": "QFD",
    "code_icao": "DAAK",
    "latitude": 36.545799,
    "longitude": 2.87611,
    "timezone": "Africa/Algiers"
  }, {
    "name": "Illizi Takhamalt Airport",
    "city": "Illizi",
    "country": "Algeria",
    "code_iata": "VVZ",
    "code_icao": "DAAP",
    "latitude": 26.7234992981,
    "longitude": 8.62265014648,
    "timezone": "Africa/Algiers"
  }, {
    "name": "Aguenar – Hadj Bey Akhamok Airport",
    "city": "Tamanrasset",
    "country": "Algeria",
    "code_iata": "TMR",
    "code_icao": "DAAT",
    "latitude": 22.8115005493,
    "longitude": 5.45107984543,
    "timezone": "Africa/Algiers"
  }, {
    "name": "Jijel Ferhat Abbas Airport",
    "city": "Jijel",
    "country": "Algeria",
    "code_iata": "GJL",
    "code_icao": "DAAV",
    "latitude": 36.7951011658,
    "longitude": 5.87361001968,
    "timezone": "Africa/Algiers"
  }, {
    "name": "Annaba Airport",
    "city": "Annaba",
    "country": "Algeria",
    "code_iata": "AAE",
    "code_icao": "DABB",
    "latitude": 36.822200775146484,
    "longitude": 7.809169769287109,
    "timezone": "Africa/Algiers"
  }, {
    "name": "Mohamed Boudiaf International Airport",
    "city": "Constantine",
    "country": "Algeria",
    "code_iata": "CZL",
    "code_icao": "DABC",
    "latitude": 36.2760009765625,
    "longitude": 6.620389938354492,
    "timezone": "Africa/Algiers"
  }, {
    "name": "Cheikh Larbi Tébessi Airport",
    "city": "Tebessa",
    "country": "Algeria",
    "code_iata": "TEE",
    "code_icao": "DABS",
    "latitude": 35.4315986633,
    "longitude": 8.12071990967,
    "timezone": "Africa/Algiers"
  }, {
    "name": "Hassi R'Mel Airport",
    "city": "Tilrempt",
    "country": "Algeria",
    "code_iata": "HRM",
    "code_icao": "DAFH",
    "latitude": 32.93040084838867,
    "longitude": 3.311539888381958,
    "timezone": "Africa/Algiers"
  }, {
    "name": "Bou Chekif Airport",
    "city": "Tiaret",
    "country": "Algeria",
    "code_iata": "TID",
    "code_icao": "DAOB",
    "latitude": 35.3410987854,
    "longitude": 1.46315002441,
    "timezone": "Africa/Algiers"
  }, {
    "name": "Tindouf Airport",
    "city": "Tindouf",
    "country": "Algeria",
    "code_iata": "TIN",
    "code_icao": "DAOF",
    "latitude": 27.7003993988,
    "longitude": -8.167099952700001,
    "timezone": "Africa/Algiers"
  }, {
    "name": "Ech Cheliff Airport",
    "city": "Ech-cheliff",
    "country": "Algeria",
    "code_iata": "QAS",
    "code_icao": "DAOI",
    "latitude": 36.2126998901,
    "longitude": 1.33176994324,
    "timezone": "Africa/Algiers"
  }, {
    "name": "Tafaraoui Airport",
    "city": "Oran",
    "country": "Algeria",
    "code_iata": "TAF",
    "code_icao": "DAOL",
    "latitude": 35.54240036010742,
    "longitude": -0.5322780013084412,
    "timezone": "Africa/Algiers"
  }, {
    "name": "Zenata – Messali El Hadj Airport",
    "city": "Tlemcen",
    "country": "Algeria",
    "code_iata": "TLM",
    "code_icao": "DAON",
    "latitude": 35.0167007446,
    "longitude": -1.45000004768,
    "timezone": "Africa/Algiers"
  }, {
    "name": "Es Senia Airport",
    "city": "Oran",
    "country": "Algeria",
    "code_iata": "ORN",
    "code_icao": "DAOO",
    "latitude": 35.6239013672,
    "longitude": -0.6211829781529999,
    "timezone": "Africa/Algiers"
  }, {
    "name": "Ghriss Airport",
    "city": "Ghriss",
    "country": "Algeria",
    "code_iata": "MUW",
    "code_icao": "DAOV",
    "latitude": 35.207698822021484,
    "longitude": 0.14714199304580688,
    "timezone": "Africa/Algiers"
  }, {
    "name": "Touat Cheikh Sidi Mohamed Belkebir Airport",
    "city": "Adrar",
    "country": "Algeria",
    "code_iata": "AZR",
    "code_icao": "DAUA",
    "latitude": 27.837600708007812,
    "longitude": -0.18641400337219238,
    "timezone": "Africa/Algiers"
  }, {
    "name": "Biskra Airport",
    "city": "Biskra",
    "country": "Algeria",
    "code_iata": "BSK",
    "code_icao": "DAUB",
    "latitude": 34.793300628699996,
    "longitude": 5.73823022842,
    "timezone": "Africa/Algiers"
  }, {
    "name": "El Golea Airport",
    "city": "El Golea",
    "country": "Algeria",
    "code_iata": "ELG",
    "code_icao": "DAUE",
    "latitude": 30.571300506591797,
    "longitude": 2.8595900535583496,
    "timezone": "Africa/Algiers"
  }, {
    "name": "Noumérat - Moufdi Zakaria Airport",
    "city": "Ghardaia",
    "country": "Algeria",
    "code_iata": "GHA",
    "code_icao": "DAUG",
    "latitude": 32.38410186767578,
    "longitude": 3.794110059738159,
    "timezone": "Africa/Algiers"
  }, {
    "name": "Oued Irara Airport",
    "city": "Hassi Messaoud",
    "country": "Algeria",
    "code_iata": "HME",
    "code_icao": "DAUH",
    "latitude": 31.673000335699996,
    "longitude": 6.140439987180001,
    "timezone": "Africa/Algiers"
  }, {
    "name": "In Salah Airport",
    "city": "In Salah",
    "country": "Algeria",
    "code_iata": "INZ",
    "code_icao": "DAUI",
    "latitude": 27.250999450699997,
    "longitude": 2.51202011108,
    "timezone": "Africa/Algiers"
  }, {
    "name": "Touggourt Sidi Madhi Airport",
    "city": "Touggourt",
    "country": "Algeria",
    "code_iata": "TGR",
    "code_icao": "DAUK",
    "latitude": 33.06779861450195,
    "longitude": 6.088669776916504,
    "timezone": "Africa/Algiers"
  }, {
    "name": "Laghouat Airport",
    "city": "Laghouat",
    "country": "Algeria",
    "code_iata": "LOO",
    "code_icao": "DAUL",
    "latitude": 33.764400482199996,
    "longitude": 2.92833995819,
    "timezone": "Africa/Algiers"
  }, {
    "name": "Timimoun Airport",
    "city": "Timimoun",
    "country": "Algeria",
    "code_iata": "TMX",
    "code_icao": "DAUT",
    "latitude": 29.2371006012,
    "longitude": 0.276033014059,
    "timezone": "Africa/Algiers"
  }, {
    "name": "Ain el Beida Airport",
    "city": "Ouargla",
    "country": "Algeria",
    "code_iata": "OGX",
    "code_icao": "DAUU",
    "latitude": 31.917200088500977,
    "longitude": 5.412779808044434,
    "timezone": "Africa/Algiers"
  }, {
    "name": "In Aménas Airport",
    "city": "Zarzaitine",
    "country": "Algeria",
    "code_iata": "IAM",
    "code_icao": "DAUZ",
    "latitude": 28.0515003204,
    "longitude": 9.64291000366,
    "timezone": "Africa/Algiers"
  }, {
    "name": "Cadjehoun Airport",
    "city": "Cotonou",
    "country": "Benin",
    "code_iata": "COO",
    "code_icao": "DBBB",
    "latitude": 6.357230186462402,
    "longitude": 2.384350061416626,
    "timezone": "Africa/Porto-Novo"
  }, {
    "name": "Ouagadougou Airport",
    "city": "Ouagadougou",
    "country": "Burkina Faso",
    "code_iata": "OUA",
    "code_icao": "DFFD",
    "latitude": 12.35319995880127,
    "longitude": -1.5124200582504272,
    "timezone": "Africa/Ouagadougou"
  }, {
    "name": "Bobo Dioulasso Airport",
    "city": "Bobo-dioulasso",
    "country": "Burkina Faso",
    "code_iata": "BOY",
    "code_icao": "DFOO",
    "latitude": 11.160099983215332,
    "longitude": -4.33096981048584,
    "timezone": "Africa/Ouagadougou"
  }, {
    "name": "Kotoka International Airport",
    "city": "Accra",
    "country": "Ghana",
    "code_iata": "ACC",
    "code_icao": "DGAA",
    "latitude": 5.605189800262451,
    "longitude": -0.16678600013256073,
    "timezone": "Africa/Accra"
  }, {
    "name": "Tamale Airport",
    "city": "Tamale",
    "country": "Ghana",
    "code_iata": "TML",
    "code_icao": "DGLE",
    "latitude": 9.55718994140625,
    "longitude": -0.8632140159606934,
    "timezone": "Africa/Accra"
  }, {
    "name": "Sunyani Airport",
    "city": "Sunyani",
    "country": "Ghana",
    "code_iata": "NYI",
    "code_icao": "DGSN",
    "latitude": 7.361830234527588,
    "longitude": -2.3287599086761475,
    "timezone": "Africa/Accra"
  }, {
    "name": "Takoradi Airport",
    "city": "Takoradi",
    "country": "Ghana",
    "code_iata": "TKD",
    "code_icao": "DGTK",
    "latitude": 4.896059989929199,
    "longitude": -1.7747600078582764,
    "timezone": "Africa/Accra"
  }, {
    "name": "Port Bouet Airport",
    "city": "Abidjan",
    "country": "Cote d'Ivoire",
    "code_iata": "ABJ",
    "code_icao": "DIAP",
    "latitude": 5.261390209197998,
    "longitude": -3.9262900352478027,
    "timezone": "Africa/Abidjan"
  }, {
    "name": "Bouaké Airport",
    "city": "Bouake",
    "country": "Cote d'Ivoire",
    "code_iata": "BYK",
    "code_icao": "DIBK",
    "latitude": 7.738800048828125,
    "longitude": -5.073669910430908,
    "timezone": "Africa/Abidjan"
  }, {
    "name": "Daloa Airport",
    "city": "Daloa",
    "country": "Cote d'Ivoire",
    "code_iata": "DJO",
    "code_icao": "DIDL",
    "latitude": 6.792809963226318,
    "longitude": -6.473189830780029,
    "timezone": "Africa/Abidjan"
  }, {
    "name": "Korhogo Airport",
    "city": "Korhogo",
    "country": "Cote d'Ivoire",
    "code_iata": "HGO",
    "code_icao": "DIKO",
    "latitude": 9.38718032837,
    "longitude": -5.55666017532,
    "timezone": "Africa/Abidjan"
  }, {
    "name": "Man Airport",
    "city": "Man",
    "country": "Cote d'Ivoire",
    "code_iata": "MJC",
    "code_icao": "DIMN",
    "latitude": 7.272069931030273,
    "longitude": -7.58735990524292,
    "timezone": "Africa/Abidjan"
  }, {
    "name": "San Pedro Airport",
    "city": "San Pedro",
    "country": "Cote d'Ivoire",
    "code_iata": "SPY",
    "code_icao": "DISP",
    "latitude": 4.746719837188721,
    "longitude": -6.660820007324219,
    "timezone": "Africa/Abidjan"
  }, {
    "name": "Yamoussoukro Airport",
    "city": "Yamoussoukro",
    "country": "Cote d'Ivoire",
    "code_iata": "ASK",
    "code_icao": "DIYO",
    "latitude": 6.9031701088,
    "longitude": -5.36558008194,
    "timezone": "Africa/Abidjan"
  }, {
    "name": "Nnamdi Azikiwe International Airport",
    "city": "Abuja",
    "country": "Nigeria",
    "code_iata": "ABV",
    "code_icao": "DNAA",
    "latitude": 9.006790161132812,
    "longitude": 7.263169765472412,
    "timezone": "Africa/Lagos"
  }, {
    "name": "Akure Airport",
    "city": "Akure",
    "country": "Nigeria",
    "code_iata": "AKR",
    "code_icao": "DNAK",
    "latitude": 7.246739864349365,
    "longitude": 5.3010101318359375,
    "timezone": "Africa/Lagos"
  }, {
    "name": "Benin Airport",
    "city": "Benin",
    "country": "Nigeria",
    "code_iata": "BNI",
    "code_icao": "DNBE",
    "latitude": 6.316979885101318,
    "longitude": 5.5995001792907715,
    "timezone": "Africa/Lagos"
  }, {
    "name": "Margaret Ekpo International Airport",
    "city": "Calabar",
    "country": "Nigeria",
    "code_iata": "CBQ",
    "code_icao": "DNCA",
    "latitude": 4.976019859313965,
    "longitude": 8.347200393676758,
    "timezone": "Africa/Lagos"
  }, {
    "name": "Akanu Ibiam International Airport",
    "city": "Enugu",
    "country": "Nigeria",
    "code_iata": "ENU",
    "code_icao": "DNEN",
    "latitude": 6.474269866943359,
    "longitude": 7.561960220336914,
    "timezone": "Africa/Lagos"
  }, {
    "name": "Gusau Airport",
    "city": "Gusau",
    "country": "Nigeria",
    "code_iata": "QUS",
    "code_icao": "DNGU",
    "latitude": 12.171699523925781,
    "longitude": 6.696109771728516,
    "timezone": "Africa/Lagos"
  }, {
    "name": "Ibadan Airport",
    "city": "Ibadan",
    "country": "Nigeria",
    "code_iata": "IBA",
    "code_icao": "DNIB",
    "latitude": 7.362460136413574,
    "longitude": 3.97832989692688,
    "timezone": "Africa/Lagos"
  }, {
    "name": "Ilorin International Airport",
    "city": "Ilorin",
    "country": "Nigeria",
    "code_iata": "ILR",
    "code_icao": "DNIL",
    "latitude": 8.440210342407227,
    "longitude": 4.493919849395752,
    "timezone": "Africa/Lagos"
  }, {
    "name": "Yakubu Gowon Airport",
    "city": "Jos",
    "country": "Nigeria",
    "code_iata": "JOS",
    "code_icao": "DNJO",
    "latitude": 9.639829635620117,
    "longitude": 8.869050025939941,
    "timezone": "Africa/Lagos"
  }, {
    "name": "Kaduna Airport",
    "city": "Kaduna",
    "country": "Nigeria",
    "code_iata": "KAD",
    "code_icao": "DNKA",
    "latitude": 10.696000099182129,
    "longitude": 7.320109844207764,
    "timezone": "Africa/Lagos"
  }, {
    "name": "Mallam Aminu International Airport",
    "city": "Kano",
    "country": "Nigeria",
    "code_iata": "KAN",
    "code_icao": "DNKN",
    "latitude": 12.047599792480469,
    "longitude": 8.524620056152344,
    "timezone": "Africa/Lagos"
  }, {
    "name": "Maiduguri International Airport",
    "city": "Maiduguri",
    "country": "Nigeria",
    "code_iata": "MIU",
    "code_icao": "DNMA",
    "latitude": 11.855299949645996,
    "longitude": 13.080900192260742,
    "timezone": "Africa/Lagos"
  }, {
    "name": "Makurdi Airport",
    "city": "Makurdi",
    "country": "Nigeria",
    "code_iata": "MDI",
    "code_icao": "DNMK",
    "latitude": 7.7038798332214355,
    "longitude": 8.613940238952637,
    "timezone": "Africa/Lagos"
  }, {
    "name": "Murtala Muhammed International Airport",
    "city": "Lagos",
    "country": "Nigeria",
    "code_iata": "LOS",
    "code_icao": "DNMM",
    "latitude": 6.5773701667785645,
    "longitude": 3.321160078048706,
    "timezone": "Africa/Lagos"
  }, {
    "name": "Minna Airport",
    "city": "Minna",
    "country": "Nigeria",
    "code_iata": "MXJ",
    "code_icao": "DNMN",
    "latitude": 9.652170181274414,
    "longitude": 6.462259769439697,
    "timezone": "Africa/Lagos"
  }, {
    "name": "Port Harcourt International Airport",
    "city": "Port Hartcourt",
    "country": "Nigeria",
    "code_iata": "PHC",
    "code_icao": "DNPO",
    "latitude": 5.0154900550842285,
    "longitude": 6.94959020614624,
    "timezone": "Africa/Lagos"
  }, {
    "name": "Sadiq Abubakar III International Airport",
    "city": "Sokoto",
    "country": "Nigeria",
    "code_iata": "SKO",
    "code_icao": "DNSO",
    "latitude": 12.916299819946289,
    "longitude": 5.207190036773682,
    "timezone": "Africa/Lagos"
  }, {
    "name": "Yola Airport",
    "city": "Yola",
    "country": "Nigeria",
    "code_iata": "YOL",
    "code_icao": "DNYO",
    "latitude": 9.257550239562988,
    "longitude": 12.430399894714355,
    "timezone": "Africa/Lagos"
  }, {
    "name": "Zaria Airport",
    "city": "Zaria",
    "country": "Nigeria",
    "code_iata": "ZAR",
    "code_icao": "DNZA",
    "latitude": 11.130200386047363,
    "longitude": 7.685810089111328,
    "timezone": "Africa/Lagos"
  }, {
    "name": "Maradi Airport",
    "city": "Maradi",
    "country": "Niger",
    "code_iata": "MFQ",
    "code_icao": "DRRM",
    "latitude": 13.5024995803833,
    "longitude": 7.1267499923706055,
    "timezone": "Africa/Niamey"
  }, {
    "name": "Diori Hamani International Airport",
    "city": "Niamey",
    "country": "Niger",
    "code_iata": "NIM",
    "code_icao": "DRRN",
    "latitude": 13.481499671936035,
    "longitude": 2.183609962463379,
    "timezone": "Africa/Niamey"
  }, {
    "name": "Tahoua Airport",
    "city": "Tahoua",
    "country": "Niger",
    "code_iata": "THZ",
    "code_icao": "DRRT",
    "latitude": 14.875699996948242,
    "longitude": 5.265359878540039,
    "timezone": "Africa/Niamey"
  }, {
    "name": "Mano Dayak International Airport",
    "city": "Agadez",
    "country": "Niger",
    "code_iata": "AJY",
    "code_icao": "DRZA",
    "latitude": 16.965999603271484,
    "longitude": 8.000109672546387,
    "timezone": "Africa/Niamey"
  }, {
    "name": "Zinder Airport",
    "city": "Zinder",
    "country": "Niger",
    "code_iata": "ZND",
    "code_icao": "DRZR",
    "latitude": 13.779000282287598,
    "longitude": 8.983759880065918,
    "timezone": "Africa/Niamey"
  }, {
    "name": "Monastir Habib Bourguiba International Airport",
    "city": "Monastir",
    "country": "Tunisia",
    "code_iata": "MIR",
    "code_icao": "DTMB",
    "latitude": 35.75809860229492,
    "longitude": 10.75469970703125,
    "timezone": "Africa/Tunis"
  }, {
    "name": "Tunis Carthage International Airport",
    "city": "Tunis",
    "country": "Tunisia",
    "code_iata": "TUN",
    "code_icao": "DTTA",
    "latitude": 36.85100173950195,
    "longitude": 10.22719955444336,
    "timezone": "Africa/Tunis"
  }, {
    "name": "Gafsa Ksar International Airport",
    "city": "Gafsa",
    "country": "Tunisia",
    "code_iata": "GAF",
    "code_icao": "DTTF",
    "latitude": 34.422000885009766,
    "longitude": 8.822500228881836,
    "timezone": "Africa/Tunis"
  }, {
    "name": "Gabès Matmata International Airport",
    "city": "Gabes",
    "country": "Tunisia",
    "code_iata": "GAE",
    "code_icao": "DTTG",
    "latitude": 33.87689971923828,
    "longitude": 10.103300094604492,
    "timezone": "Africa/Tunis"
  }, {
    "name": "Djerba Zarzis International Airport",
    "city": "Djerba",
    "country": "Tunisia",
    "code_iata": "DJE",
    "code_icao": "DTTJ",
    "latitude": 33.875,
    "longitude": 10.775500297546387,
    "timezone": "Africa/Tunis"
  }, {
    "name": "El Borma Airport",
    "city": "El Borma",
    "country": "Tunisia",
    "code_iata": "EBM",
    "code_icao": "DTTR",
    "latitude": 31.704299926757812,
    "longitude": 9.254619598388672,
    "timezone": "Africa/Tunis"
  }, {
    "name": "Sfax Thyna International Airport",
    "city": "Sfax",
    "country": "Tunisia",
    "code_iata": "SFA",
    "code_icao": "DTTX",
    "latitude": 34.71799850463867,
    "longitude": 10.690999984741211,
    "timezone": "Africa/Tunis"
  }, {
    "name": "Tozeur Nefta International Airport",
    "city": "Tozeur",
    "country": "Tunisia",
    "code_iata": "TOE",
    "code_icao": "DTTZ",
    "latitude": 33.939701080322266,
    "longitude": 8.110560417175293,
    "timezone": "Africa/Tunis"
  }, {
    "name": "Niamtougou International Airport",
    "city": "Niatougou",
    "country": "Togo",
    "code_iata": "LRL",
    "code_icao": "DXNG",
    "latitude": 9.767330169677734,
    "longitude": 1.091249942779541,
    "timezone": "Africa/Lome"
  }, {
    "name": "Lomé-Tokoin Airport",
    "city": "Lome",
    "country": "Togo",
    "code_iata": "LFW",
    "code_icao": "DXXX",
    "latitude": 6.165609836578369,
    "longitude": 1.2545100450515747,
    "timezone": "Africa/Lome"
  }, {
    "name": "Antwerp International Airport (Deurne)",
    "city": "Antwerp",
    "country": "Belgium",
    "code_iata": "ANR",
    "code_icao": "EBAW",
    "latitude": 51.1893997192,
    "longitude": 4.46027994156,
    "timezone": "Europe/Brussels"
  }, {
    "name": "Brussels Airport",
    "city": "Brussels",
    "country": "Belgium",
    "code_iata": "BRU",
    "code_icao": "EBBR",
    "latitude": 50.901401519800004,
    "longitude": 4.48443984985,
    "timezone": "Europe/Brussels"
  }, {
    "name": "Brussels South Charleroi Airport",
    "city": "Charleroi",
    "country": "Belgium",
    "code_iata": "CRL",
    "code_icao": "EBCI",
    "latitude": 50.459201812699995,
    "longitude": 4.45382022858,
    "timezone": "Europe/Brussels"
  }, {
    "name": "Wevelgem Airport",
    "city": "Kortrijk-vevelgem",
    "country": "Belgium",
    "code_iata": "QKT",
    "code_icao": "EBKT",
    "latitude": 50.817199707,
    "longitude": 3.20472002029,
    "timezone": "Europe/Brussels"
  }, {
    "name": "Liège Airport",
    "city": "Liege",
    "country": "Belgium",
    "code_iata": "LGG",
    "code_icao": "EBLG",
    "latitude": 50.63740158081055,
    "longitude": 5.443220138549805,
    "timezone": "Europe/Brussels"
  }, {
    "name": "Ostend-Bruges International Airport",
    "city": "Ostend",
    "country": "Belgium",
    "code_iata": "OST",
    "code_icao": "EBOS",
    "latitude": 51.198898315399994,
    "longitude": 2.8622200489,
    "timezone": "Europe/Brussels"
  }, {
    "name": "Altenburg-Nobitz Airport",
    "city": "Altenburg",
    "country": "Germany",
    "code_iata": "AOC",
    "code_icao": "EDAC",
    "latitude": 50.9819450378418,
    "longitude": 12.506388664245605,
    "timezone": "Europe/Berlin"
  }, {
    "name": "Barth Airport",
    "city": "Barth",
    "country": "Germany",
    "code_iata": "BBH",
    "code_icao": "EDBH",
    "latitude": 54.338253,
    "longitude": 12.710515,
    "timezone": "Europe/Berlin"
  }, {
    "name": "Berlin-Schönefeld International Airport",
    "city": "Berlin",
    "country": "Germany",
    "code_iata": "SXF",
    "code_icao": "EDDB",
    "latitude": 52.380001068115,
    "longitude": 13.522500038147,
    "timezone": "Europe/Berlin"
  }, {
    "name": "Dresden Airport",
    "city": "Dresden",
    "country": "Germany",
    "code_iata": "DRS",
    "code_icao": "EDDC",
    "latitude": 51.1328010559082,
    "longitude": 13.767200469970703,
    "timezone": "Europe/Berlin"
  }, {
    "name": "Erfurt Airport",
    "city": "Erfurt",
    "country": "Germany",
    "code_iata": "ERF",
    "code_icao": "EDDE",
    "latitude": 50.979801177978516,
    "longitude": 10.958100318908691,
    "timezone": "Europe/Berlin"
  }, {
    "name": "Frankfurt am Main International Airport",
    "city": "Frankfurt",
    "country": "Germany",
    "code_iata": "FRA",
    "code_icao": "EDDF",
    "latitude": 50.0333333,
    "longitude": 8.5705556,
    "timezone": "Europe/Berlin"
  }, {
    "name": "Münster Osnabrück Airport",
    "city": "Munster",
    "country": "Germany",
    "code_iata": "FMO",
    "code_icao": "EDDG",
    "latitude": 52.134601593,
    "longitude": 7.68483018875,
    "timezone": "Europe/Berlin"
  }, {
    "name": "Hamburg Airport",
    "city": "Hamburg",
    "country": "Germany",
    "code_iata": "HAM",
    "code_icao": "EDDH",
    "latitude": 53.630401611328,
    "longitude": 9.9882297515869,
    "timezone": "Europe/Berlin"
  }, {
    "name": "Berlin-Tempelhof International Airport",
    "city": "Berlin",
    "country": "Germany",
    "code_iata": "THF",
    "code_icao": "EDDI",
    "latitude": 52.472999572753906,
    "longitude": 13.403900146484375,
    "timezone": "Europe/Berlin"
  }, {
    "name": "Cologne Bonn Airport",
    "city": "Cologne",
    "country": "Germany",
    "code_iata": "CGN",
    "code_icao": "EDDK",
    "latitude": 50.8658981323,
    "longitude": 7.1427397728,
    "timezone": "Europe/Berlin"
  }, {
    "name": "Düsseldorf International Airport",
    "city": "Duesseldorf",
    "country": "Germany",
    "code_iata": "DUS",
    "code_icao": "EDDL",
    "latitude": 51.28950119018555,
    "longitude": 6.766779899597168,
    "timezone": "Europe/Berlin"
  }, {
    "name": "Munich International Airport",
    "city": "Munich",
    "country": "Germany",
    "code_iata": "MUC",
    "code_icao": "EDDM",
    "latitude": 48.353801727295,
    "longitude": 11.786100387573,
    "timezone": "Europe/Berlin"
  }, {
    "name": "Nuremberg Airport",
    "city": "Nuernberg",
    "country": "Germany",
    "code_iata": "NUE",
    "code_icao": "EDDN",
    "latitude": 49.498699,
    "longitude": 11.0780556,
    "timezone": "Europe/Berlin"
  }, {
    "name": "Leipzig Halle Airport",
    "city": "Leipzig",
    "country": "Germany",
    "code_iata": "LEJ",
    "code_icao": "EDDP",
    "latitude": 51.4238889,
    "longitude": 12.2363889,
    "timezone": "Europe/Berlin"
  }, {
    "name": "Saarbrücken Airport",
    "city": "Saarbruecken",
    "country": "Germany",
    "code_iata": "SCN",
    "code_icao": "EDDR",
    "latitude": 49.214599609400004,
    "longitude": 7.10950994492,
    "timezone": "Europe/Berlin"
  }, {
    "name": "Stuttgart Airport",
    "city": "Stuttgart",
    "country": "Germany",
    "code_iata": "STR",
    "code_icao": "EDDS",
    "latitude": 48.689899444599995,
    "longitude": 9.22196006775,
    "timezone": "Europe/Berlin"
  }, {
    "name": "Berlin-Tegel International Airport",
    "city": "Berlin",
    "country": "Germany",
    "code_iata": "TXL",
    "code_icao": "EDDT",
    "latitude": 52.5597000122,
    "longitude": 13.2876996994,
    "timezone": "Europe/Berlin"
  }, {
    "name": "Hannover Airport",
    "city": "Hannover",
    "country": "Germany",
    "code_iata": "HAJ",
    "code_icao": "EDDV",
    "latitude": 52.461101532,
    "longitude": 9.685079574580001,
    "timezone": "Europe/Berlin"
  }, {
    "name": "Bremen Airport",
    "city": "Bremen",
    "country": "Germany",
    "code_iata": "BRE",
    "code_icao": "EDDW",
    "latitude": 53.0475006104,
    "longitude": 8.78666973114,
    "timezone": "Europe/Berlin"
  }, {
    "name": "Frankfurt-Egelsbach Airport",
    "city": "Egelsbach",
    "country": "Germany",
    "code_iata": "QEF",
    "code_icao": "EDFE",
    "latitude": 49.959999084472656,
    "longitude": 8.645833015441895,
    "timezone": "Europe/Berlin"
  }, {
    "name": "Frankfurt-Hahn Airport",
    "city": "Hahn",
    "country": "Germany",
    "code_iata": "HHN",
    "code_icao": "EDFH",
    "latitude": 49.948699951200005,
    "longitude": 7.263889789579999,
    "timezone": "Europe/Berlin"
  }, {
    "name": "Mannheim-City Airport",
    "city": "Mannheim",
    "country": "Germany",
    "code_iata": "MHG",
    "code_icao": "EDFM",
    "latitude": 49.47305679321289,
    "longitude": 8.514166831970215,
    "timezone": "Europe/Berlin"
  }, {
    "name": "Hamburg-Finkenwerder Airport",
    "city": "Hamburg",
    "country": "Germany",
    "code_iata": "XFW",
    "code_icao": "EDHI",
    "latitude": 53.5352783203125,
    "longitude": 9.835556030273438,
    "timezone": "Europe/Berlin"
  }, {
    "name": "Kiel-Holtenau Airport",
    "city": "Kiel",
    "country": "Germany",
    "code_iata": "KEL",
    "code_icao": "EDHK",
    "latitude": 54.37944412231445,
    "longitude": 10.145277976989746,
    "timezone": "Europe/Berlin"
  }, {
    "name": "Lübeck Blankensee Airport",
    "city": "Luebeck",
    "country": "Germany",
    "code_iata": "LBC",
    "code_icao": "EDHL",
    "latitude": 53.8054008484,
    "longitude": 10.7192001343,
    "timezone": "Europe/Berlin"
  }, {
    "name": "Arnsberg-Menden Airport",
    "city": "Arnsberg",
    "country": "Germany",
    "code_iata": "ZCA",
    "code_icao": "EDLA",
    "latitude": 51.483890533447266,
    "longitude": 7.8983330726623535,
    "timezone": "Europe/Berlin"
  }, {
    "name": "Essen Mulheim Airport",
    "city": "Essen",
    "country": "Germany",
    "code_iata": "ESS",
    "code_icao": "EDLE",
    "latitude": 51.40230178833008,
    "longitude": 6.9373297691345215,
    "timezone": "Europe/Berlin"
  }, {
    "name": "Mönchengladbach Airport",
    "city": "Moenchengladbach",
    "country": "Germany",
    "code_iata": "MGL",
    "code_icao": "EDLN",
    "latitude": 51.23027801513672,
    "longitude": 6.504444122314453,
    "timezone": "Europe/Berlin"
  }, {
    "name": "Paderborn Lippstadt Airport",
    "city": "Paderborn",
    "country": "Germany",
    "code_iata": "PAD",
    "code_icao": "EDLP",
    "latitude": 51.614101409899995,
    "longitude": 8.616319656369999,
    "timezone": "Europe/Berlin"
  }, {
    "name": "Dortmund Airport",
    "city": "Dortmund",
    "country": "Germany",
    "code_iata": "DTM",
    "code_icao": "EDLW",
    "latitude": 51.51829910279999,
    "longitude": 7.61223983765,
    "timezone": "Europe/Berlin"
  }, {
    "name": "Augsburg Airport",
    "city": "Augsburg",
    "country": "Germany",
    "code_iata": "AGB",
    "code_icao": "EDMA",
    "latitude": 48.425278,
    "longitude": 10.931667,
    "timezone": "Europe/Berlin"
  }, {
    "name": "Oberpfaffenhofen Airport",
    "city": "Oberpfaffenhofen",
    "country": "Germany",
    "code_iata": "OBF",
    "code_icao": "EDMO",
    "latitude": 48.08140182495117,
    "longitude": 11.283100128173828,
    "timezone": "Europe/Berlin"
  }, {
    "name": "Straubing Airport",
    "city": "Straubing",
    "country": "Germany",
    "code_iata": "RBM",
    "code_icao": "EDMS",
    "latitude": 48.90083312988281,
    "longitude": 12.516667366027832,
    "timezone": "Europe/Berlin"
  }, {
    "name": "Friedrichshafen Airport",
    "city": "Friedrichshafen",
    "country": "Germany",
    "code_iata": "FDH",
    "code_icao": "EDNY",
    "latitude": 47.671298980699994,
    "longitude": 9.51148986816,
    "timezone": "Europe/Berlin"
  }, {
    "name": "Schwerin Parchim Airport",
    "city": "Parchim",
    "country": "Germany",
    "code_iata": "SZW",
    "code_icao": "EDOP",
    "latitude": 53.426998,
    "longitude": 11.7834,
    "timezone": "Europe/Berlin"
  }, {
    "name": "Stendal-Borstel Airport",
    "city": "Stendal",
    "country": "Germany",
    "code_iata": "ZSN",
    "code_icao": "EDOV",
    "latitude": 52.62888717651367,
    "longitude": 11.818611145019531,
    "timezone": "Europe/Berlin"
  }, {
    "name": "Bayreuth Airport",
    "city": "Bayreuth",
    "country": "Germany",
    "code_iata": "BYU",
    "code_icao": "EDQD",
    "latitude": 49.98500061035156,
    "longitude": 11.640000343322754,
    "timezone": "Europe/Berlin"
  }, {
    "name": "Hof-Plauen Airport",
    "city": "Hof",
    "country": "Germany",
    "code_iata": "HOQ",
    "code_icao": "EDQM",
    "latitude": 50.288612365722656,
    "longitude": 11.856389045715332,
    "timezone": "Europe/Berlin"
  }, {
    "name": "Koblenz-Winningen Airport",
    "city": "Koblenz",
    "country": "Germany",
    "code_iata": "ZNV",
    "code_icao": "EDRK",
    "latitude": 50.325557708740234,
    "longitude": 7.528611183166504,
    "timezone": "Europe/Berlin"
  }, {
    "name": "Trier-Föhren Airport",
    "city": "Trier",
    "country": "Germany",
    "code_iata": "ZQF",
    "code_icao": "EDRT",
    "latitude": 49.863887786865234,
    "longitude": 6.787499904632568,
    "timezone": "Europe/Berlin"
  }, {
    "name": "Speyer Airport",
    "city": "Speyer",
    "country": "Germany",
    "code_iata": "ZQC",
    "code_icao": "EDRY",
    "latitude": 49.30472183227539,
    "longitude": 8.45138931274414,
    "timezone": "Europe/Berlin"
  }, {
    "name": "Zweibrücken Airport",
    "city": "Zweibruecken",
    "country": "Germany",
    "code_iata": "ZQW",
    "code_icao": "EDRZ",
    "latitude": 49.20940017700195,
    "longitude": 7.400559902191162,
    "timezone": "Europe/Berlin"
  }, {
    "name": "Donaueschingen-Villingen Airport",
    "city": "Donaueschingen",
    "country": "Germany",
    "code_iata": "ZQL",
    "code_icao": "EDTD",
    "latitude": 47.97333145139999,
    "longitude": 8.52222156525,
    "timezone": "Europe/Berlin"
  }, {
    "name": "Braunschweig Wolfsburg Airport",
    "city": "Braunschweig",
    "country": "Germany",
    "code_iata": "BWE",
    "code_icao": "EDVE",
    "latitude": 52.319199,
    "longitude": 10.5561,
    "timezone": "Europe/Berlin"
  }, {
    "name": "Kassel-Calden Airport",
    "city": "Kassel",
    "country": "Germany",
    "code_iata": "KSF",
    "code_icao": "EDVK",
    "latitude": 51.417273,
    "longitude": 9.384967,
    "timezone": "Europe/Berlin"
  }, {
    "name": "Bremerhaven Airport",
    "city": "Bremerhaven",
    "country": "Germany",
    "code_iata": "BRV",
    "code_icao": "EDWB",
    "latitude": 53.506943,
    "longitude": 8.572778,
    "timezone": "Europe/Berlin"
  }, {
    "name": "Emden Airport",
    "city": "Emden",
    "country": "Germany",
    "code_iata": "EME",
    "code_icao": "EDWE",
    "latitude": 53.391109466552734,
    "longitude": 7.227499961853027,
    "timezone": "Europe/Berlin"
  }, {
    "name": "Wilhelmshaven-Mariensiel Airport",
    "city": "Wilhelmshaven",
    "country": "Germany",
    "code_iata": "WVN",
    "code_icao": "EDWI",
    "latitude": 53.502220153808594,
    "longitude": 8.05222225189209,
    "timezone": "Europe/Berlin"
  }, {
    "name": "Borkum Airport",
    "city": "Borkum",
    "country": "Germany",
    "code_iata": "BMK",
    "code_icao": "EDWR",
    "latitude": 53.5963897705,
    "longitude": 6.70916700363,
    "timezone": "Europe/Berlin"
  }, {
    "name": "Norderney Airport",
    "city": "Norderney",
    "country": "Germany",
    "code_iata": "NRD",
    "code_icao": "EDWY",
    "latitude": 53.70694351196289,
    "longitude": 7.230000019073486,
    "timezone": "Europe/Berlin"
  }, {
    "name": "Flensburg-Schäferhaus Airport",
    "city": "Flensburg",
    "country": "Germany",
    "code_iata": "FLF",
    "code_icao": "EDXF",
    "latitude": 54.77333450317383,
    "longitude": 9.378889083862305,
    "timezone": "Europe/Berlin"
  }, {
    "name": "Westerland Sylt Airport",
    "city": "Westerland",
    "country": "Germany",
    "code_iata": "GWT",
    "code_icao": "EDXW",
    "latitude": 54.9132003784,
    "longitude": 8.34047031403,
    "timezone": "Europe/Berlin"
  }, {
    "name": "Kärdla Airport",
    "city": "Kardla",
    "country": "Estonia",
    "code_iata": "KDL",
    "code_icao": "EEKA",
    "latitude": 58.99079895019531,
    "longitude": 22.830699920654297,
    "timezone": "Europe/Tallinn"
  }, {
    "name": "Kuressaare Airport",
    "city": "Kuressaare",
    "country": "Estonia",
    "code_iata": "URE",
    "code_icao": "EEKE",
    "latitude": 58.22990036010742,
    "longitude": 22.50950050354004,
    "timezone": "Europe/Tallinn"
  }, {
    "name": "Pärnu Airport",
    "city": "Parnu",
    "country": "Estonia",
    "code_iata": "EPU",
    "code_icao": "EEPU",
    "latitude": 58.41899871826172,
    "longitude": 24.47279930114746,
    "timezone": "Europe/Tallinn"
  }, {
    "name": "Lennart Meri Tallinn Airport",
    "city": "Tallinn-ulemiste International",
    "country": "Estonia",
    "code_iata": "TLL",
    "code_icao": "EETN",
    "latitude": 59.41329956049999,
    "longitude": 24.832799911499997,
    "timezone": "Europe/Tallinn"
  }, {
    "name": "Tartu Airport",
    "city": "Tartu",
    "country": "Estonia",
    "code_iata": "TAY",
    "code_icao": "EETU",
    "latitude": 58.3074989319,
    "longitude": 26.690399169900004,
    "timezone": "Europe/Tallinn"
  }, {
    "name": "Enontekio Airport",
    "city": "Enontekio",
    "country": "Finland",
    "code_iata": "ENF",
    "code_icao": "EFET",
    "latitude": 68.362602233887,
    "longitude": 23.424299240112,
    "timezone": "Europe/Helsinki"
  }, {
    "name": "Halli Airport",
    "city": "Halli",
    "country": "Finland",
    "code_iata": "KEV",
    "code_icao": "EFHA",
    "latitude": 61.856039,
    "longitude": 24.786686,
    "timezone": "Europe/Helsinki"
  }, {
    "name": "Helsinki Malmi Airport",
    "city": "Helsinki",
    "country": "Finland",
    "code_iata": "HEM",
    "code_icao": "EFHF",
    "latitude": 60.254600524902344,
    "longitude": 25.042800903320312,
    "timezone": "Europe/Helsinki"
  }, {
    "name": "Helsinki Vantaa Airport",
    "city": "Helsinki",
    "country": "Finland",
    "code_iata": "HEL",
    "code_icao": "EFHK",
    "latitude": 60.317199707031,
    "longitude": 24.963300704956,
    "timezone": "Europe/Helsinki"
  }, {
    "name": "Hyvinkää Airfield",
    "city": "Hyvinkaa",
    "country": "Finland",
    "code_iata": "HYV",
    "code_icao": "EFHV",
    "latitude": 60.6543998718,
    "longitude": 24.8810997009,
    "timezone": "Europe/Helsinki"
  }, {
    "name": "Ivalo Airport",
    "city": "Ivalo",
    "country": "Finland",
    "code_iata": "IVL",
    "code_icao": "EFIV",
    "latitude": 68.607299804688,
    "longitude": 27.405300140381,
    "timezone": "Europe/Helsinki"
  }, {
    "name": "Joensuu Airport",
    "city": "Joensuu",
    "country": "Finland",
    "code_iata": "JOE",
    "code_icao": "EFJO",
    "latitude": 62.662899017334,
    "longitude": 29.607500076294,
    "timezone": "Europe/Helsinki"
  }, {
    "name": "Jyvaskyla Airport",
    "city": "Jyvaskyla",
    "country": "Finland",
    "code_iata": "JYV",
    "code_icao": "EFJY",
    "latitude": 62.399501800537,
    "longitude": 25.678300857544,
    "timezone": "Europe/Helsinki"
  }, {
    "name": "Kauhava Airport",
    "city": "Kauhava",
    "country": "Finland",
    "code_iata": "KAU",
    "code_icao": "EFKA",
    "latitude": 63.127102,
    "longitude": 23.051399,
    "timezone": "Europe/Helsinki"
  }, {
    "name": "Kemi-Tornio Airport",
    "city": "Kemi",
    "country": "Finland",
    "code_iata": "KEM",
    "code_icao": "EFKE",
    "latitude": 65.778701782227,
    "longitude": 24.582099914551,
    "timezone": "Europe/Helsinki"
  }, {
    "name": "Kajaani Airport",
    "city": "Kajaani",
    "country": "Finland",
    "code_iata": "KAJ",
    "code_icao": "EFKI",
    "latitude": 64.285499572754,
    "longitude": 27.692399978638,
    "timezone": "Europe/Helsinki"
  }, {
    "name": "Kokkola-Pietarsaari Airport",
    "city": "Kruunupyy",
    "country": "Finland",
    "code_iata": "KOK",
    "code_icao": "EFKK",
    "latitude": 63.721199035645,
    "longitude": 23.143100738525,
    "timezone": "Europe/Helsinki"
  }, {
    "name": "Kuusamo Airport",
    "city": "Kuusamo",
    "country": "Finland",
    "code_iata": "KAO",
    "code_icao": "EFKS",
    "latitude": 65.987602233887,
    "longitude": 29.239400863647,
    "timezone": "Europe/Helsinki"
  }, {
    "name": "Kittilä Airport",
    "city": "Kittila",
    "country": "Finland",
    "code_iata": "KTT",
    "code_icao": "EFKT",
    "latitude": 67.700996398926,
    "longitude": 24.846799850464,
    "timezone": "Europe/Helsinki"
  }, {
    "name": "Kuopio Airport",
    "city": "Kuopio",
    "country": "Finland",
    "code_iata": "KUO",
    "code_icao": "EFKU",
    "latitude": 63.007099151611,
    "longitude": 27.797800064087,
    "timezone": "Europe/Helsinki"
  }, {
    "name": "Lappeenranta Airport",
    "city": "Lappeenranta",
    "country": "Finland",
    "code_iata": "LPP",
    "code_icao": "EFLP",
    "latitude": 61.044601,
    "longitude": 28.144743,
    "timezone": "Europe/Helsinki"
  }, {
    "name": "Mariehamn Airport",
    "city": "Mariehamn",
    "country": "Finland",
    "code_iata": "MHQ",
    "code_icao": "EFMA",
    "latitude": 60.122200012207,
    "longitude": 19.898199081421,
    "timezone": "Europe/Mariehamn"
  }, {
    "name": "Mikkeli Airport",
    "city": "Mikkeli",
    "country": "Finland",
    "code_iata": "MIK",
    "code_icao": "EFMI",
    "latitude": 61.6866,
    "longitude": 27.201799,
    "timezone": "Europe/Helsinki"
  }, {
    "name": "Oulu Airport",
    "city": "Oulu",
    "country": "Finland",
    "code_iata": "OUL",
    "code_icao": "EFOU",
    "latitude": 64.930099487305,
    "longitude": 25.354600906372,
    "timezone": "Europe/Helsinki"
  }, {
    "name": "Pori Airport",
    "city": "Pori",
    "country": "Finland",
    "code_iata": "POR",
    "code_icao": "EFPO",
    "latitude": 61.461700439453,
    "longitude": 21.799999237061,
    "timezone": "Europe/Helsinki"
  }, {
    "name": "Rovaniemi Airport",
    "city": "Rovaniemi",
    "country": "Finland",
    "code_iata": "RVN",
    "code_icao": "EFRO",
    "latitude": 66.564796447754,
    "longitude": 25.830400466919,
    "timezone": "Europe/Helsinki"
  }, {
    "name": "Savonlinna Airport",
    "city": "Savonlinna",
    "country": "Finland",
    "code_iata": "SVL",
    "code_icao": "EFSA",
    "latitude": 61.943099975586,
    "longitude": 28.945100784302,
    "timezone": "Europe/Helsinki"
  }, {
    "name": "Sodankyla Airport",
    "city": "Sodankyla",
    "country": "Finland",
    "code_iata": "SOT",
    "code_icao": "EFSO",
    "latitude": 67.3949966431,
    "longitude": 26.6191005707,
    "timezone": "Europe/Helsinki"
  }, {
    "name": "Tampere-Pirkkala Airport",
    "city": "Tampere",
    "country": "Finland",
    "code_iata": "TMP",
    "code_icao": "EFTP",
    "latitude": 61.414100646973,
    "longitude": 23.604400634766,
    "timezone": "Europe/Helsinki"
  }, {
    "name": "Turku Airport",
    "city": "Turku",
    "country": "Finland",
    "code_iata": "TKU",
    "code_icao": "EFTU",
    "latitude": 60.514099121094,
    "longitude": 22.262800216675,
    "timezone": "Europe/Helsinki"
  }, {
    "name": "Utti Air Base",
    "city": "Utti",
    "country": "Finland",
    "code_iata": "QVY",
    "code_icao": "EFUT",
    "latitude": 60.89640045166,
    "longitude": 26.938400268555,
    "timezone": "Europe/Helsinki"
  }, {
    "name": "Vaasa Airport",
    "city": "Vaasa",
    "country": "Finland",
    "code_iata": "VAA",
    "code_icao": "EFVA",
    "latitude": 63.050701141357,
    "longitude": 21.762199401855,
    "timezone": "Europe/Helsinki"
  }, {
    "name": "Varkaus Airport",
    "city": "Varkaus",
    "country": "Finland",
    "code_iata": "VRK",
    "code_icao": "EFVR",
    "latitude": 62.171100616455,
    "longitude": 27.868600845337,
    "timezone": "Europe/Helsinki"
  }, {
    "name": "Belfast International Airport",
    "city": "Belfast",
    "country": "United Kingdom",
    "code_iata": "BFS",
    "code_icao": "EGAA",
    "latitude": 54.6575012207,
    "longitude": -6.2158298492399995,
    "timezone": "Europe/London"
  }, {
    "name": "St Angelo Airport",
    "city": "Enniskillen",
    "country": "United Kingdom",
    "code_iata": "ENK",
    "code_icao": "EGAB",
    "latitude": 54.39889907836914,
    "longitude": -7.651669979095459,
    "timezone": "Europe/London"
  }, {
    "name": "George Best Belfast City Airport",
    "city": "Belfast",
    "country": "United Kingdom",
    "code_iata": "BHD",
    "code_icao": "EGAC",
    "latitude": 54.618099212646484,
    "longitude": -5.872499942779541,
    "timezone": "Europe/London"
  }, {
    "name": "City of Derry Airport",
    "city": "Londonderry",
    "country": "United Kingdom",
    "code_iata": "LDY",
    "code_icao": "EGAE",
    "latitude": 55.04280090332031,
    "longitude": -7.161109924316406,
    "timezone": "Europe/London"
  }, {
    "name": "Birmingham International Airport",
    "city": "Birmingham",
    "country": "United Kingdom",
    "code_iata": "BHX",
    "code_icao": "EGBB",
    "latitude": 52.453899383499994,
    "longitude": -1.74802994728,
    "timezone": "Europe/London"
  }, {
    "name": "Coventry Airport",
    "city": "Coventry",
    "country": "United Kingdom",
    "code_iata": "CVT",
    "code_icao": "EGBE",
    "latitude": 52.3697013855,
    "longitude": -1.4797199964499999,
    "timezone": "Europe/London"
  }, {
    "name": "Leicester Airport",
    "city": "Leicester",
    "country": "United Kingdom",
    "code_icao": "EGBG",
    "latitude": 52.6077995300293,
    "longitude": -1.03193998336792,
    "timezone": "Europe/London"
  }, {
    "name": "Gloucestershire Airport",
    "city": "Golouchestershire",
    "country": "United Kingdom",
    "code_iata": "GLO",
    "code_icao": "EGBJ",
    "latitude": 51.89419937133789,
    "longitude": -2.167220115661621,
    "timezone": "Europe/London"
  }, {
    "name": "Wolverhampton Halfpenny Green Airport",
    "city": "Halfpenny Green",
    "country": "United Kingdom",
    "code_icao": "EGBO",
    "latitude": 52.51750183105469,
    "longitude": -2.2594399452209473,
    "timezone": "Europe/London"
  }, {
    "name": "Cotswold Airport",
    "city": "Pailton",
    "country": "United Kingdom",
    "code_icao": "EGBP",
    "latitude": 51.668095,
    "longitude": -2.05694,
    "timezone": "Europe/London"
  }, {
    "name": "Turweston Airport",
    "city": "Turweston",
    "country": "United Kingdom",
    "code_icao": "EGBT",
    "latitude": 52.0407981873,
    "longitude": -1.09555995464,
    "timezone": "Europe/London"
  }, {
    "name": "Wellesbourne Mountford Airport",
    "city": "Wellesbourne",
    "country": "United Kingdom",
    "code_icao": "EGBW",
    "latitude": 52.19219970703125,
    "longitude": -1.6144399642944336,
    "timezone": "Europe/London"
  }, {
    "name": "Manchester Airport",
    "city": "Manchester",
    "country": "United Kingdom",
    "code_iata": "MAN",
    "code_icao": "EGCC",
    "latitude": 53.35369873046875,
    "longitude": -2.2749500274658203,
    "timezone": "Europe/London"
  }, {
    "name": "Manchester Woodford Airport",
    "city": "Woodfort",
    "country": "United Kingdom",
    "code_icao": "EGCD",
    "latitude": 53.3381,
    "longitude": -2.14889,
    "timezone": "Europe/London"
  }, {
    "name": "Royal Marines Base Chivenor Airport",
    "city": "Chivenor",
    "country": "United Kingdom",
    "code_icao": "EGDC",
    "latitude": 51.08720016479492,
    "longitude": -4.1503400802612305,
    "timezone": "Europe/London"
  }, {
    "name": "Newquay Cornwall Airport",
    "city": "Newquai",
    "country": "United Kingdom",
    "code_iata": "NQY",
    "code_icao": "EGHQ",
    "latitude": 50.44060134887695,
    "longitude": -4.995409965515137,
    "timezone": "Europe/London"
  }, {
    "name": "RAF Lyneham",
    "city": "Lyneham",
    "country": "United Kingdom",
    "code_iata": "LYE",
    "code_icao": "EGDL",
    "latitude": 51.5051,
    "longitude": -1.99343,
    "timezone": "Europe/London"
  }, {
    "name": "MoD Boscombe Down Airport",
    "city": "Boscombe Down",
    "country": "United Kingdom",
    "code_icao": "EGDM",
    "latitude": 51.152198791503906,
    "longitude": -1.7474100589752197,
    "timezone": "Europe/London"
  }, {
    "name": "RNAS Culdrose",
    "city": "Culdrose",
    "country": "United Kingdom",
    "code_icao": "EGDR",
    "latitude": 50.08610153198242,
    "longitude": -5.255710124969482,
    "timezone": "Europe/London"
  }, {
    "name": "MOD St. Athan",
    "city": "St. Athan",
    "country": "United Kingdom",
    "code_icao": "EGDX",
    "latitude": 51.40480041503906,
    "longitude": -3.4357500076293945,
    "timezone": "Europe/London"
  }, {
    "name": "RNAS Yeovilton",
    "city": "Yeovilton",
    "country": "United Kingdom",
    "code_iata": "YEO",
    "code_icao": "EGDY",
    "latitude": 51.0093994140625,
    "longitude": -2.638819932937622,
    "timezone": "Europe/London"
  }, {
    "name": "Haverfordwest Airport",
    "city": "Haverfordwest",
    "country": "United Kingdom",
    "code_icao": "EGFE",
    "latitude": 51.833099365234375,
    "longitude": -4.9611101150512695,
    "timezone": "Europe/London"
  }, {
    "name": "Cardiff International Airport",
    "city": "Cardiff",
    "country": "United Kingdom",
    "code_iata": "CWL",
    "code_icao": "EGFF",
    "latitude": 51.39670181274414,
    "longitude": -3.343329906463623,
    "timezone": "Europe/London"
  }, {
    "name": "Swansea Airport",
    "city": "Swansea",
    "country": "United Kingdom",
    "code_iata": "SWS",
    "code_icao": "EGFH",
    "latitude": 51.60530090332031,
    "longitude": -4.0678300857543945,
    "timezone": "Europe/London"
  }, {
    "name": "Bristol Airport",
    "city": "Bristol",
    "country": "United Kingdom",
    "code_iata": "BRS",
    "code_icao": "EGGD",
    "latitude": 51.382702,
    "longitude": -2.71909,
    "timezone": "Europe/London"
  }, {
    "name": "Liverpool John Lennon Airport",
    "city": "Liverpool",
    "country": "United Kingdom",
    "code_iata": "LPL",
    "code_icao": "EGGP",
    "latitude": 53.33359909057617,
    "longitude": -2.849720001220703,
    "timezone": "Europe/London"
  }, {
    "name": "London Luton Airport",
    "city": "London",
    "country": "United Kingdom",
    "code_iata": "LTN",
    "code_icao": "EGGW",
    "latitude": 51.874698638916016,
    "longitude": -0.36833301186561584,
    "timezone": "Europe/London"
  }, {
    "name": "Plymouth City Airport",
    "city": "Plymouth",
    "country": "United Kingdom",
    "code_iata": "PLH",
    "code_icao": "EGHD",
    "latitude": 50.422798,
    "longitude": -4.10583,
    "timezone": "Europe/London"
  }, {
    "name": "Bournemouth Airport",
    "city": "Bournemouth",
    "country": "United Kingdom",
    "code_iata": "BOH",
    "code_icao": "EGHH",
    "latitude": 50.779998779296875,
    "longitude": -1.8424999713897705,
    "timezone": "Europe/London"
  }, {
    "name": "Southampton Airport",
    "city": "Southampton",
    "country": "United Kingdom",
    "code_iata": "SOU",
    "code_icao": "EGHI",
    "latitude": 50.95029830932617,
    "longitude": -1.3567999601364136,
    "timezone": "Europe/London"
  }, {
    "name": "Lasham Airport",
    "city": "Lasham",
    "country": "United Kingdom",
    "code_iata": "QLA",
    "code_icao": "EGHL",
    "latitude": 51.187198638916016,
    "longitude": -1.0334999561309814,
    "timezone": "Europe/London"
  }, {
    "name": "Alderney Airport",
    "city": "Alderney",
    "country": "Guernsey",
    "code_iata": "ACI",
    "code_icao": "EGJA",
    "latitude": 49.70610046386719,
    "longitude": -2.2147200107574463,
    "timezone": "Europe/Guernsey"
  }, {
    "name": "Guernsey Airport",
    "city": "Guernsey",
    "country": "Guernsey",
    "code_iata": "GCI",
    "code_icao": "EGJB",
    "latitude": 49.435001373291016,
    "longitude": -2.6019699573516846,
    "timezone": "Europe/Guernsey"
  }, {
    "name": "Jersey Airport",
    "city": "Jersey",
    "country": "Jersey",
    "code_iata": "JER",
    "code_icao": "EGJJ",
    "latitude": 49.20790100097656,
    "longitude": -2.195509910583496,
    "timezone": "Europe/Jersey"
  }, {
    "name": "Shoreham Airport",
    "city": "Shoreham By Sea",
    "country": "United Kingdom",
    "code_iata": "ESH",
    "code_icao": "EGKA",
    "latitude": 50.835601806640625,
    "longitude": -0.29722198843955994,
    "timezone": "Europe/London"
  },